[
  {
    "id":1,
    "unit_no":"69",
    "building_name":null,
    "street_name":"Jalan Tun Perdana 52",
    "locality":"Bandar Indah",
    "postcode":"93100",
    "city":"Miri",
    "district":"Miri",
    "state":"Sarawak",
    "latitude":4.107725,
    "longitude":109.208013
  },
  {
    "id":2,
    "unit_no":"104",
    "building_name":null,
    "street_name":"Persiaran Raya 10",
    "locality":"Taman Bestari",
    "postcode":"88000",
    "city":"Kota Kinabalu",
    "district":"Kota Kinabalu",
    "state":"Sabah",
    "latitude":6.438813,
    "longitude":116.910199
  },
  {
    "id":3,
    "unit_no":"44",
    "building_name":null,
    "street_name":"Persiaran Sri 52",
    "locality":"Kampung Utama",
    "postcode":"10000",
    "city":"George Town",
    "district":"George Town",
    "state":"Pulau Pinang",
    "latitude":2.282487,
    "longitude":99.521656
  },
  {
    "id":4,
    "unit_no":"114",
    "building_name":null,
    "street_name":"Persiaran Cempaka 57",
    "locality":"Kampung Bestari",
    "postcode":"81100",
    "city":"Batu Pahat",
    "district":"Batu Pahat",
    "state":"Johor",
    "latitude":4.733816,
    "longitude":104.73851
  },
  {
    "id":5,
    "unit_no":"56",
    "building_name":null,
    "street_name":"Lebuh Setia 8",
    "locality":"Taman Permai",
    "postcode":"01000",
    "city":"Kangar",
    "district":"Kangar",
    "state":"Perlis",
    "latitude":6.848491,
    "longitude":100.504023
  },
  {
    "id":6,
    "unit_no":"142",
    "building_name":null,
    "street_name":"Lebuh Sri 79",
    "locality":"Kampung Indah",
    "postcode":"20000",
    "city":"Kuala Terengganu",
    "district":"Kuala Terengganu",
    "state":"Terengganu",
    "latitude":5.197105,
    "longitude":106.844702
  },
  {
    "id":7,
    "unit_no":"70",
    "building_name":null,
    "street_name":"Lorong Perdana 2",
    "locality":"Kampung Utama",
    "postcode":"34000",
    "city":"Taiping",
    "district":"Taiping",
    "state":"Perak",
    "latitude":6.376412,
    "longitude":117.125146
  },
  {
    "id":8,
    "unit_no":"60",
    "building_name":null,
    "street_name":"Persiaran Indah 73",
    "locality":"Pusat Perdagangan Permai",
    "postcode":"90000",
    "city":"Kota Kinabalu",
    "district":"Kota Kinabalu",
    "state":"Sabah",
    "latitude":6.108319,
    "longitude":100.023265
  },
  {
    "id":9,
    "unit_no":"39",
    "building_name":null,
    "street_name":"Jalan Datuk Setia 5",
    "locality":"Kampung Indah",
    "postcode":"07000",
    "city":"Langkawi",
    "district":"Langkawi",
    "state":"Kedah",
    "latitude":1.529219,
    "longitude":117.865095
  },
  {
    "id":10,
    "unit_no":"40",
    "building_name":null,
    "street_name":"Lorong Raya 55",
    "locality":"Seksyen Indah",
    "postcode":"90000",
    "city":"Sandakan",
    "district":"Sandakan",
    "state":"Sabah",
    "latitude":1.263142,
    "longitude":100.140825
  },
  {
    "id":11,
    "unit_no":"61",
    "building_name":null,
    "street_name":"Jalan Tun Raya 30",
    "locality":"Kampung Jaya",
    "postcode":"10400",
    "city":"George Town",
    "district":"George Town",
    "state":"Pulau Pinang",
    "latitude":5.5735,
    "longitude":111.298802
  },
  {
    "id":12,
    "unit_no":"128",
    "building_name":null,
    "street_name":"Jalan Sri 76",
    "locality":"Kampung Sentosa",
    "postcode":"30300",
    "city":"Taiping",
    "district":"Taiping",
    "state":"Perak",
    "latitude":5.668088,
    "longitude":105.628288
  },
  {
    "id":13,
    "unit_no":"70",
    "building_name":null,
    "street_name":"Lorong Sri 72",
    "locality":"Seksyen Indah",
    "postcode":"30000",
    "city":"Ipoh",
    "district":"Ipoh",
    "state":"Perak",
    "latitude":1.991036,
    "longitude":101.869261
  },
  {
    "id":14,
    "unit_no":"13",
    "building_name":null,
    "street_name":"Jalan Sri 81",
    "locality":"Pusat Perdagangan Bestari",
    "postcode":"08000",
    "city":"Langkawi",
    "district":"Langkawi",
    "state":"Kedah",
    "latitude":2.109395,
    "longitude":113.972026
  },
  {
    "id":15,
    "unit_no":"90",
    "building_name":null,
    "street_name":"Lorong Raya 35",
    "locality":"Kampung Permai",
    "postcode":"90000",
    "city":"Sandakan",
    "district":"Sandakan",
    "state":"Sabah",
    "latitude":2.323582,
    "longitude":109.773281
  },
  {
    "id":16,
    "unit_no":"47",
    "building_name":null,
    "street_name":"Jalan Tun Raya 39",
    "locality":"Pusat Perdagangan Permai",
    "postcode":"11900",
    "city":"George Town",
    "district":"George Town",
    "state":"Pulau Pinang",
    "latitude":5.35738,
    "longitude":99.974761
  },
  {
    "id":17,
    "unit_no":"104",
    "building_name":null,
    "street_name":"Jalan Maju 90",
    "locality":"Bandar Permai",
    "postcode":"70300",
    "city":"Seremban",
    "district":"Seremban",
    "state":"Negeri Sembilan",
    "latitude":6.227871,
    "longitude":113.848475
  },
  {
    "id":18,
    "unit_no":"135",
    "building_name":null,
    "street_name":"Lebuh Setia 10",
    "locality":"Bandar Permai",
    "postcode":"01000",
    "city":"Kangar",
    "district":"Kangar",
    "state":"Perlis",
    "latitude":3.547251,
    "longitude":99.195658
  },
  {
    "id":19,
    "unit_no":"68",
    "building_name":null,
    "street_name":"Lorong Melati 44",
    "locality":"Kampung Utama",
    "postcode":"98000",
    "city":"Kuching",
    "district":"Kuching",
    "state":"Sarawak",
    "latitude":3.562519,
    "longitude":107.19714
  },
  {
    "id":20,
    "unit_no":"1",
    "building_name":null,
    "street_name":"Lebuh Maju 48",
    "locality":"Bandar Utama",
    "postcode":"25000",
    "city":"Kuantan",
    "district":"Kuantan",
    "state":"Pahang",
    "latitude":3.39358,
    "longitude":111.364192
  },
  {
    "id":21,
    "unit_no":"102",
    "building_name":null,
    "street_name":"Lorong Perdana 14",
    "locality":"Kampung Indah",
    "postcode":"70000",
    "city":"Seremban",
    "district":"Seremban",
    "state":"Negeri Sembilan",
    "latitude":2.752118,
    "longitude":118.530616
  },
  {
    "id":22,
    "unit_no":"78",
    "building_name":null,
    "street_name":"Lorong Sri 66",
    "locality":"Seksyen Indah",
    "postcode":"11900",
    "city":"Bayan Lepas",
    "district":"Bayan Lepas",
    "state":"Pulau Pinang",
    "latitude":5.95397,
    "longitude":113.302831
  },
  {
    "id":23,
    "unit_no":"105",
    "building_name":null,
    "street_name":"Jalan Melati 66",
    "locality":"Seksyen Indah",
    "postcode":"08000",
    "city":"Alor Setar",
    "district":"Alor Setar",
    "state":"Kedah",
    "latitude":1.54298,
    "longitude":115.455338
  },
  {
    "id":24,
    "unit_no":"53",
    "building_name":null,
    "street_name":"Persiaran Cempaka 15",
    "locality":"Bandar Permai",
    "postcode":"15400",
    "city":"Kota Bharu",
    "district":"Kota Bharu",
    "state":"Kelantan",
    "latitude":1.913257,
    "longitude":119.374384
  },
  {
    "id":25,
    "unit_no":"39",
    "building_name":null,
    "street_name":"Jalan Tun Melati 75",
    "locality":"Taman Jaya",
    "postcode":"30300",
    "city":"Ipoh",
    "district":"Ipoh",
    "state":"Perak",
    "latitude":3.17663,
    "longitude":118.110482
  },
  {
    "id":26,
    "unit_no":"111",
    "building_name":null,
    "street_name":"Lorong Indah 25",
    "locality":"Bandar Sentosa",
    "postcode":"70000",
    "city":"Seremban",
    "district":"Seremban",
    "state":"Negeri Sembilan",
    "latitude":3.886644,
    "longitude":108.819897
  },
  {
    "id":27,
    "unit_no":"134",
    "building_name":null,
    "street_name":"Lorong Melati 24",
    "locality":"Taman Sentosa",
    "postcode":"25200",
    "city":"Kuantan",
    "district":"Kuantan",
    "state":"Pahang",
    "latitude":1.457635,
    "longitude":112.546209
  },
  {
    "id":28,
    "unit_no":"34",
    "building_name":null,
    "street_name":"Jalan Datuk Raya 49",
    "locality":"Bandar Indah",
    "postcode":"01000",
    "city":"Kangar",
    "district":"Kangar",
    "state":"Perlis",
    "latitude":3.892611,
    "longitude":118.934109
  },
  {
    "id":29,
    "unit_no":"23",
    "building_name":null,
    "street_name":"Persiaran Setia 82",
    "locality":"Bandar Utama",
    "postcode":"40460",
    "city":"Subang Jaya",
    "district":"Subang Jaya",
    "state":"Selangor",
    "latitude":2.759453,
    "longitude":111.194535
  },
  {
    "id":30,
    "unit_no":"75",
    "building_name":null,
    "street_name":"Jalan Sri 86",
    "locality":"Taman Jaya",
    "postcode":"41000",
    "city":"Subang Jaya",
    "district":"Subang Jaya",
    "state":"Selangor",
    "latitude":6.809658,
    "longitude":110.022531
  },
  {
    "id":31,
    "unit_no":"55",
    "building_name":null,
    "street_name":"Lebuh Indah 88",
    "locality":"Kampung Utama",
    "postcode":"56000",
    "city":"Kuala Lumpur",
    "district":"Kuala Lumpur",
    "state":"Wilayah Persekutuan Kuala Lumpur",
    "latitude":5.940054,
    "longitude":111.227523
  },
  {
    "id":32,
    "unit_no":"101",
    "building_name":null,
    "street_name":"Jalan Tun Cempaka 74",
    "locality":"Pusat Perdagangan Indah",
    "postcode":"75000",
    "city":"Melaka",
    "district":"Melaka",
    "state":"Melaka",
    "latitude":2.235439,
    "longitude":101.651305
  },
  {
    "id":33,
    "unit_no":"48",
    "building_name":null,
    "street_name":"Jalan Melati 2",
    "locality":"Pusat Perdagangan Sentosa",
    "postcode":"70000",
    "city":"Seremban",
    "district":"Seremban",
    "state":"Negeri Sembilan",
    "latitude":4.637451,
    "longitude":117.036893
  },
  {
    "id":34,
    "unit_no":"80",
    "building_name":null,
    "street_name":"Jalan Datuk Setia 24",
    "locality":"Bandar Permai",
    "postcode":"25000",
    "city":"Kuantan",
    "district":"Kuantan",
    "state":"Pahang",
    "latitude":3.672427,
    "longitude":114.7104
  },
  {
    "id":35,
    "unit_no":"42",
    "building_name":null,
    "street_name":"Lebuh Maju 15",
    "locality":"Kampung Indah",
    "postcode":"90000",
    "city":"Sandakan",
    "district":"Sandakan",
    "state":"Sabah",
    "latitude":3.555259,
    "longitude":105.508101
  },
  {
    "id":36,
    "unit_no":"130",
    "building_name":null,
    "street_name":"Persiaran Perdana 50",
    "locality":"Kampung Bestari",
    "postcode":"30000",
    "city":"Ipoh",
    "district":"Ipoh",
    "state":"Perak",
    "latitude":4.024631,
    "longitude":105.797378
  },
  {
    "id":37,
    "unit_no":"12",
    "building_name":null,
    "street_name":"Jalan Tun Sri 77",
    "locality":"Taman Bestari",
    "postcode":"88000",
    "city":"Kota Kinabalu",
    "district":"Kota Kinabalu",
    "state":"Sabah",
    "latitude":6.554261,
    "longitude":107.637389
  },
  {
    "id":38,
    "unit_no":"150",
    "building_name":null,
    "street_name":"Jalan Datuk Indah 39",
    "locality":"Kampung Utama",
    "postcode":"90000",
    "city":"Sandakan",
    "district":"Sandakan",
    "state":"Sabah",
    "latitude":4.947934,
    "longitude":101.532669
  },
  {
    "id":39,
    "unit_no":"54",
    "building_name":null,
    "street_name":"Jalan Datuk Raya 19",
    "locality":"Kampung Indah",
    "postcode":"70000",
    "city":"Seremban",
    "district":"Seremban",
    "state":"Negeri Sembilan",
    "latitude":3.332569,
    "longitude":106.013558
  },
  {
    "id":40,
    "unit_no":"78",
    "building_name":null,
    "street_name":"Jalan Maju 37",
    "locality":"Bandar Indah",
    "postcode":"01000",
    "city":"Kangar",
    "district":"Kangar",
    "state":"Perlis",
    "latitude":5.407052,
    "longitude":111.558501
  },
  {
    "id":41,
    "unit_no":"119",
    "building_name":null,
    "street_name":"Lorong Melati 11",
    "locality":"Bandar Bestari",
    "postcode":"75100",
    "city":"Melaka",
    "district":"Melaka",
    "state":"Melaka",
    "latitude":4.455361,
    "longitude":116.539427
  },
  {
    "id":42,
    "unit_no":"63",
    "building_name":null,
    "street_name":"Lebuh Perdana 44",
    "locality":"Seksyen Jaya",
    "postcode":"05000",
    "city":"Langkawi",
    "district":"Langkawi",
    "state":"Kedah",
    "latitude":5.900642,
    "longitude":108.758389
  },
  {
    "id":43,
    "unit_no":"12",
    "building_name":null,
    "street_name":"Lorong Cempaka 94",
    "locality":"Taman Bestari",
    "postcode":"88000",
    "city":"Kota Kinabalu",
    "district":"Kota Kinabalu",
    "state":"Sabah",
    "latitude":1.240508,
    "longitude":114.350365
  },
  {
    "id":44,
    "unit_no":"97",
    "building_name":null,
    "street_name":"Jalan Sri 75",
    "locality":"Pusat Perdagangan Jaya",
    "postcode":"80000",
    "city":"Muar",
    "district":"Muar",
    "state":"Johor",
    "latitude":6.034074,
    "longitude":102.875313
  },
  {
    "id":45,
    "unit_no":"99",
    "building_name":null,
    "street_name":"Lorong Melati 66",
    "locality":"Pusat Perdagangan Indah",
    "postcode":"98000",
    "city":"Kuching",
    "district":"Kuching",
    "state":"Sarawak",
    "latitude":1.203335,
    "longitude":107.756389
  },
  {
    "id":46,
    "unit_no":"93",
    "building_name":null,
    "street_name":"Jalan Tun Maju 37",
    "locality":"Pusat Perdagangan Sentosa",
    "postcode":"98000",
    "city":"Miri",
    "district":"Miri",
    "state":"Sarawak",
    "latitude":5.412774,
    "longitude":103.261369
  },
  {
    "id":47,
    "unit_no":"51",
    "building_name":null,
    "street_name":"Persiaran Raya 81",
    "locality":"Bandar Permai",
    "postcode":"75000",
    "city":"Melaka",
    "district":"Melaka",
    "state":"Melaka",
    "latitude":1.71507,
    "longitude":100.817296
  },
  {
    "id":48,
    "unit_no":"140",
    "building_name":null,
    "street_name":"Jalan Datuk Cempaka 7",
    "locality":"Seksyen Permai",
    "postcode":"93100",
    "city":"Miri",
    "district":"Miri",
    "state":"Sarawak",
    "latitude":2.166882,
    "longitude":103.617477
  },
  {
    "id":49,
    "unit_no":"36",
    "building_name":null,
    "street_name":"Jalan Datuk Raya 58",
    "locality":"Seksyen Jaya",
    "postcode":"70300",
    "city":"Seremban",
    "district":"Seremban",
    "state":"Negeri Sembilan",
    "latitude":6.036789,
    "longitude":109.24659
  },
  {
    "id":50,
    "unit_no":"37",
    "building_name":null,
    "street_name":"Jalan Datuk Sri 77",
    "locality":"Seksyen Jaya",
    "postcode":"15400",
    "city":"Kota Bharu",
    "district":"Kota Bharu",
    "state":"Kelantan",
    "latitude":6.718829,
    "longitude":102.887962
  },
  {
    "id":51,
    "unit_no":"12",
    "building_name":null,
    "street_name":"Lorong Perdana 60",
    "locality":"Seksyen Jaya",
    "postcode":"25200",
    "city":"Kuantan",
    "district":"Kuantan",
    "state":"Pahang",
    "latitude":1.387708,
    "longitude":105.547114
  },
  {
    "id":52,
    "unit_no":"92",
    "building_name":null,
    "street_name":"Lorong Sri 43",
    "locality":"Pusat Perdagangan Sentosa",
    "postcode":"75000",
    "city":"Melaka",
    "district":"Melaka",
    "state":"Melaka",
    "latitude":5.553992,
    "longitude":116.804157
  },
  {
    "id":53,
    "unit_no":"89",
    "building_name":null,
    "street_name":"Lebuh Sri 80",
    "locality":"Pusat Perdagangan Indah",
    "postcode":"40460",
    "city":"Subang Jaya",
    "district":"Subang Jaya",
    "state":"Selangor",
    "latitude":2.424082,
    "longitude":104.547298
  },
  {
    "id":54,
    "unit_no":"143",
    "building_name":null,
    "street_name":"Persiaran Setia 9",
    "locality":"Pusat Perdagangan Indah",
    "postcode":"98000",
    "city":"Miri",
    "district":"Miri",
    "state":"Sarawak",
    "latitude":6.706592,
    "longitude":114.376186
  },
  {
    "id":55,
    "unit_no":"100",
    "building_name":null,
    "street_name":"Lorong Perdana 55",
    "locality":"Pusat Perdagangan Utama",
    "postcode":"84000",
    "city":"Muar",
    "district":"Muar",
    "state":"Johor",
    "latitude":4.754557,
    "longitude":101.93617
  },
  {
    "id":56,
    "unit_no":"14",
    "building_name":null,
    "street_name":"Jalan Datuk Indah 80",
    "locality":"Kampung Jaya",
    "postcode":"70300",
    "city":"Seremban",
    "district":"Seremban",
    "state":"Negeri Sembilan",
    "latitude":5.184876,
    "longitude":109.41847
  },
  {
    "id":57,
    "unit_no":"89",
    "building_name":null,
    "street_name":"Persiaran Melati 79",
    "locality":"Seksyen Indah",
    "postcode":"20100",
    "city":"Kuala Terengganu",
    "district":"Kuala Terengganu",
    "state":"Terengganu",
    "latitude":1.663732,
    "longitude":109.911145
  },
  {
    "id":58,
    "unit_no":"2",
    "building_name":null,
    "street_name":"Jalan Datuk Indah 70",
    "locality":"Taman Bestari",
    "postcode":"50200",
    "city":"Kuala Lumpur",
    "district":"Kuala Lumpur",
    "state":"Wilayah Persekutuan Kuala Lumpur",
    "latitude":2.389544,
    "longitude":106.964336
  },
  {
    "id":59,
    "unit_no":"63",
    "building_name":null,
    "street_name":"Lorong Maju 52",
    "locality":"Bandar Bestari",
    "postcode":"01000",
    "city":"Kangar",
    "district":"Kangar",
    "state":"Perlis",
    "latitude":6.354346,
    "longitude":108.322632
  },
  {
    "id":60,
    "unit_no":"2",
    "building_name":null,
    "street_name":"Jalan Indah 48",
    "locality":"Seksyen Bestari",
    "postcode":"50100",
    "city":"Kuala Lumpur",
    "district":"Kuala Lumpur",
    "state":"Wilayah Persekutuan Kuala Lumpur",
    "latitude":6.757543,
    "longitude":105.318004
  },
  {
    "id":61,
    "unit_no":"85",
    "building_name":null,
    "street_name":"Jalan Datuk Raya 78",
    "locality":"Bandar Jaya",
    "postcode":"75100",
    "city":"Melaka",
    "district":"Melaka",
    "state":"Melaka",
    "latitude":3.868787,
    "longitude":100.114514
  },
  {
    "id":62,
    "unit_no":"25",
    "building_name":null,
    "street_name":"Lorong Perdana 56",
    "locality":"Seksyen Permai",
    "postcode":"84000",
    "city":"Johor Bahru",
    "district":"Johor Bahru",
    "state":"Johor",
    "latitude":6.508774,
    "longitude":119.437229
  },
  {
    "id":63,
    "unit_no":"111",
    "building_name":null,
    "street_name":"Jalan Melati 53",
    "locality":"Pusat Perdagangan Jaya",
    "postcode":"75000",
    "city":"Melaka",
    "district":"Melaka",
    "state":"Melaka",
    "latitude":3.854669,
    "longitude":113.714491
  },
  {
    "id":64,
    "unit_no":"60",
    "building_name":null,
    "street_name":"Jalan Datuk Setia 91",
    "locality":"Taman Utama",
    "postcode":"07000",
    "city":"Alor Setar",
    "district":"Alor Setar",
    "state":"Kedah",
    "latitude":3.509401,
    "longitude":106.845179
  },
  {
    "id":65,
    "unit_no":"13",
    "building_name":null,
    "street_name":"Lorong Perdana 27",
    "locality":"Kampung Indah",
    "postcode":"83000",
    "city":"Johor Bahru",
    "district":"Johor Bahru",
    "state":"Johor",
    "latitude":6.6162,
    "longitude":107.724899
  },
  {
    "id":66,
    "unit_no":"65",
    "building_name":null,
    "street_name":"Jalan Tun Maju 42",
    "locality":"Seksyen Sentosa",
    "postcode":"01000",
    "city":"Kangar",
    "district":"Kangar",
    "state":"Perlis",
    "latitude":4.223386,
    "longitude":117.437927
  },
  {
    "id":67,
    "unit_no":"118",
    "building_name":null,
    "street_name":"Jalan Tun Perdana 33",
    "locality":"Bandar Permai",
    "postcode":"75100",
    "city":"Melaka",
    "district":"Melaka",
    "state":"Melaka",
    "latitude":3.811967,
    "longitude":100.757094
  },
  {
    "id":68,
    "unit_no":"15",
    "building_name":null,
    "street_name":"Jalan Sri 90",
    "locality":"Seksyen Jaya",
    "postcode":"80000",
    "city":"Batu Pahat",
    "district":"Batu Pahat",
    "state":"Johor",
    "latitude":4.202278,
    "longitude":119.428308
  },
  {
    "id":69,
    "unit_no":"132",
    "building_name":null,
    "street_name":"Persiaran Maju 13",
    "locality":"Taman Sentosa",
    "postcode":"25000",
    "city":"Kuantan",
    "district":"Kuantan",
    "state":"Pahang",
    "latitude":2.252746,
    "longitude":113.324303
  },
  {
    "id":70,
    "unit_no":"110",
    "building_name":null,
    "street_name":"Lorong Cempaka 47",
    "locality":"Kampung Utama",
    "postcode":"70000",
    "city":"Seremban",
    "district":"Seremban",
    "state":"Negeri Sembilan",
    "latitude":2.431775,
    "longitude":115.589923
  },
  {
    "id":71,
    "unit_no":"113",
    "building_name":null,
    "street_name":"Jalan Tun Perdana 56",
    "locality":"Kampung Permai",
    "postcode":"01000",
    "city":"Kangar",
    "district":"Kangar",
    "state":"Perlis",
    "latitude":5.083863,
    "longitude":104.957753
  },
  {
    "id":72,
    "unit_no":"20",
    "building_name":null,
    "street_name":"Lorong Setia 54",
    "locality":"Pusat Perdagangan Bestari",
    "postcode":"84000",
    "city":"Muar",
    "district":"Muar",
    "state":"Johor",
    "latitude":6.482918,
    "longitude":103.629229
  },
  {
    "id":73,
    "unit_no":"110",
    "building_name":null,
    "street_name":"Persiaran Raya 31",
    "locality":"Taman Indah",
    "postcode":"81100",
    "city":"Batu Pahat",
    "district":"Batu Pahat",
    "state":"Johor",
    "latitude":4.457145,
    "longitude":106.089988
  },
  {
    "id":74,
    "unit_no":"120",
    "building_name":null,
    "street_name":"Persiaran Setia 98",
    "locality":"Kampung Utama",
    "postcode":"40100",
    "city":"Shah Alam",
    "district":"Shah Alam",
    "state":"Selangor",
    "latitude":1.200844,
    "longitude":113.635336
  },
  {
    "id":75,
    "unit_no":"24",
    "building_name":null,
    "street_name":"Jalan Datuk Raya 83",
    "locality":"Bandar Bestari",
    "postcode":"50100",
    "city":"Kuala Lumpur",
    "district":"Kuala Lumpur",
    "state":"Wilayah Persekutuan Kuala Lumpur",
    "latitude":5.391176,
    "longitude":107.004782
  },
  {
    "id":76,
    "unit_no":"36",
    "building_name":null,
    "street_name":"Persiaran Maju 22",
    "locality":"Kampung Sentosa",
    "postcode":"90000",
    "city":"Sandakan",
    "district":"Sandakan",
    "state":"Sabah",
    "latitude":2.633368,
    "longitude":106.190141
  },
  {
    "id":77,
    "unit_no":"65",
    "building_name":null,
    "street_name":"Jalan Raya 27",
    "locality":"Seksyen Permai",
    "postcode":"10400",
    "city":"Bayan Lepas",
    "district":"Bayan Lepas",
    "state":"Pulau Pinang",
    "latitude":5.381877,
    "longitude":99.220344
  },
  {
    "id":78,
    "unit_no":"86",
    "building_name":null,
    "street_name":"Lorong Perdana 87",
    "locality":"Kampung Bestari",
    "postcode":"08000",
    "city":"Sungai Petani",
    "district":"Sungai Petani",
    "state":"Kedah",
    "latitude":1.101842,
    "longitude":114.873389
  },
  {
    "id":79,
    "unit_no":"91",
    "building_name":null,
    "street_name":"Lorong Perdana 12",
    "locality":"Kampung Indah",
    "postcode":"93100",
    "city":"Kuching",
    "district":"Kuching",
    "state":"Sarawak",
    "latitude":5.703464,
    "longitude":117.783796
  },
  {
    "id":80,
    "unit_no":"93",
    "building_name":null,
    "street_name":"Jalan Datuk Perdana 80",
    "locality":"Kampung Utama",
    "postcode":"93000",
    "city":"Kuching",
    "district":"Kuching",
    "state":"Sarawak",
    "latitude":5.149697,
    "longitude":110.124728
  },
  {
    "id":81,
    "unit_no":"24",
    "building_name":null,
    "street_name":"Lebuh Perdana 80",
    "locality":"Bandar Permai",
    "postcode":"88000",
    "city":"Sandakan",
    "district":"Sandakan",
    "state":"Sabah",
    "latitude":5.161423,
    "longitude":99.353657
  },
  {
    "id":82,
    "unit_no":"118",
    "building_name":null,
    "street_name":"Lorong Cempaka 87",
    "locality":"Seksyen Jaya",
    "postcode":"60000",
    "city":"Kuala Lumpur",
    "district":"Kuala Lumpur",
    "state":"Wilayah Persekutuan Kuala Lumpur",
    "latitude":3.145191,
    "longitude":119.305184
  },
  {
    "id":83,
    "unit_no":"14",
    "building_name":null,
    "street_name":"Persiaran Raya 7",
    "locality":"Pusat Perdagangan Utama",
    "postcode":"20100",
    "city":"Kuala Terengganu",
    "district":"Kuala Terengganu",
    "state":"Terengganu",
    "latitude":4.694915,
    "longitude":111.656718
  },
  {
    "id":84,
    "unit_no":"31",
    "building_name":null,
    "street_name":"Jalan Datuk Perdana 41",
    "locality":"Seksyen Jaya",
    "postcode":"34000",
    "city":"Ipoh",
    "district":"Ipoh",
    "state":"Perak",
    "latitude":5.345137,
    "longitude":109.144514
  },
  {
    "id":85,
    "unit_no":"7",
    "building_name":null,
    "street_name":"Jalan Melati 51",
    "locality":"Kampung Permai",
    "postcode":"88000",
    "city":"Sandakan",
    "district":"Sandakan",
    "state":"Sabah",
    "latitude":5.039243,
    "longitude":105.148919
  },
  {
    "id":86,
    "unit_no":"15",
    "building_name":null,
    "street_name":"Lebuh Cempaka 64",
    "locality":"Seksyen Indah",
    "postcode":"20000",
    "city":"Kuala Terengganu",
    "district":"Kuala Terengganu",
    "state":"Terengganu",
    "latitude":3.005206,
    "longitude":109.989479
  },
  {
    "id":87,
    "unit_no":"43",
    "building_name":null,
    "street_name":"Jalan Datuk Perdana 77",
    "locality":"Seksyen Permai",
    "postcode":"25000",
    "city":"Kuantan",
    "district":"Kuantan",
    "state":"Pahang",
    "latitude":1.4096,
    "longitude":104.116532
  },
  {
    "id":88,
    "unit_no":"47",
    "building_name":null,
    "street_name":"Jalan Melati 15",
    "locality":"Bandar Utama",
    "postcode":"30000",
    "city":"Ipoh",
    "district":"Ipoh",
    "state":"Perak",
    "latitude":3.366706,
    "longitude":111.167797
  },
  {
    "id":89,
    "unit_no":"10",
    "building_name":null,
    "street_name":"Jalan Maju 29",
    "locality":"Kampung Permai",
    "postcode":"15000",
    "city":"Kota Bharu",
    "district":"Kota Bharu",
    "state":"Kelantan",
    "latitude":6.172998,
    "longitude":108.08169
  },
  {
    "id":90,
    "unit_no":"21",
    "building_name":null,
    "street_name":"Persiaran Maju 52",
    "locality":"Bandar Jaya",
    "postcode":"84000",
    "city":"Johor Bahru",
    "district":"Johor Bahru",
    "state":"Johor",
    "latitude":6.020067,
    "longitude":115.765044
  },
  {
    "id":91,
    "unit_no":"15",
    "building_name":null,
    "street_name":"Lebuh Perdana 26",
    "locality":"Bandar Utama",
    "postcode":"80000",
    "city":"Batu Pahat",
    "district":"Batu Pahat",
    "state":"Johor",
    "latitude":3.143045,
    "longitude":100.900408
  },
  {
    "id":92,
    "unit_no":"82",
    "building_name":null,
    "street_name":"Lebuh Sri 35",
    "locality":"Seksyen Permai",
    "postcode":"25200",
    "city":"Kuantan",
    "district":"Kuantan",
    "state":"Pahang",
    "latitude":4.472033,
    "longitude":100.357694
  },
  {
    "id":93,
    "unit_no":"112",
    "building_name":null,
    "street_name":"Jalan Datuk Perdana 3",
    "locality":"Pusat Perdagangan Utama",
    "postcode":"01000",
    "city":"Kangar",
    "district":"Kangar",
    "state":"Perlis",
    "latitude":1.919898,
    "longitude":118.184561
  },
  {
    "id":94,
    "unit_no":"44",
    "building_name":null,
    "street_name":"Jalan Tun Sri 60",
    "locality":"Seksyen Utama",
    "postcode":"11900",
    "city":"George Town",
    "district":"George Town",
    "state":"Pulau Pinang",
    "latitude":2.89371,
    "longitude":119.303847
  },
  {
    "id":95,
    "unit_no":"120",
    "building_name":null,
    "street_name":"Lorong Setia 40",
    "locality":"Taman Jaya",
    "postcode":"75100",
    "city":"Melaka",
    "district":"Melaka",
    "state":"Melaka",
    "latitude":5.948222,
    "longitude":104.987041
  },
  {
    "id":96,
    "unit_no":"37",
    "building_name":null,
    "street_name":"Lorong Maju 82",
    "locality":"Bandar Utama",
    "postcode":"15000",
    "city":"Kota Bharu",
    "district":"Kota Bharu",
    "state":"Kelantan",
    "latitude":3.383793,
    "longitude":105.851707
  },
  {
    "id":97,
    "unit_no":"84",
    "building_name":null,
    "street_name":"Jalan Datuk Sri 69",
    "locality":"Bandar Bestari",
    "postcode":"88000",
    "city":"Kota Kinabalu",
    "district":"Kota Kinabalu",
    "state":"Sabah",
    "latitude":3.269726,
    "longitude":108.665906
  },
  {
    "id":98,
    "unit_no":"132",
    "building_name":null,
    "street_name":"Jalan Datuk Indah 92",
    "locality":"Seksyen Utama",
    "postcode":"40460",
    "city":"Shah Alam",
    "district":"Shah Alam",
    "state":"Selangor",
    "latitude":1.380274,
    "longitude":103.300527
  },
  {
    "id":99,
    "unit_no":"69",
    "building_name":null,
    "street_name":"Lebuh Setia 48",
    "locality":"Taman Sentosa",
    "postcode":"30300",
    "city":"Taiping",
    "district":"Taiping",
    "state":"Perak",
    "latitude":1.478434,
    "longitude":103.768266
  },
  {
    "id":100,
    "unit_no":"53",
    "building_name":null,
    "street_name":"Jalan Sri 13",
    "locality":"Kampung Bestari",
    "postcode":"15400",
    "city":"Kota Bharu",
    "district":"Kota Bharu",
    "state":"Kelantan",
    "latitude":1.503542,
    "longitude":102.546296
  },
  {
    "id":101,
    "unit_no":"53",
    "building_name":null,
    "street_name":"Jalan Datuk Cempaka 28",
    "locality":"Pusat Perdagangan Jaya",
    "postcode":"11900",
    "city":"Bayan Lepas",
    "district":"Bayan Lepas",
    "state":"Pulau Pinang",
    "latitude":4.966502,
    "longitude":101.809378
  },
  {
    "id":102,
    "unit_no":"34",
    "building_name":null,
    "street_name":"Lebuh Setia 99",
    "locality":"Taman Utama",
    "postcode":"75100",
    "city":"Melaka",
    "district":"Melaka",
    "state":"Melaka",
    "latitude":4.198917,
    "longitude":110.454915
  },
  {
    "id":103,
    "unit_no":"131",
    "building_name":null,
    "street_name":"Jalan Tun Raya 37",
    "locality":"Kampung Sentosa",
    "postcode":"11900",
    "city":"George Town",
    "district":"George Town",
    "state":"Pulau Pinang",
    "latitude":2.838422,
    "longitude":116.615349
  },
  {
    "id":104,
    "unit_no":"128",
    "building_name":null,
    "street_name":"Persiaran Sri 60",
    "locality":"Seksyen Jaya",
    "postcode":"70300",
    "city":"Seremban",
    "district":"Seremban",
    "state":"Negeri Sembilan",
    "latitude":6.727003,
    "longitude":112.879843
  },
  {
    "id":105,
    "unit_no":"120",
    "building_name":null,
    "street_name":"Persiaran Sri 54",
    "locality":"Kampung Jaya",
    "postcode":"88000",
    "city":"Kota Kinabalu",
    "district":"Kota Kinabalu",
    "state":"Sabah",
    "latitude":5.995939,
    "longitude":99.240334
  },
  {
    "id":106,
    "unit_no":"74",
    "building_name":null,
    "street_name":"Persiaran Sri 70",
    "locality":"Taman Indah",
    "postcode":"05300",
    "city":"Sungai Petani",
    "district":"Sungai Petani",
    "state":"Kedah",
    "latitude":2.521998,
    "longitude":113.56051
  },
  {
    "id":107,
    "unit_no":"32",
    "building_name":null,
    "street_name":"Lebuh Raya 7",
    "locality":"Kampung Indah",
    "postcode":"25200",
    "city":"Kuantan",
    "district":"Kuantan",
    "state":"Pahang",
    "latitude":4.312264,
    "longitude":99.008093
  },
  {
    "id":108,
    "unit_no":"37",
    "building_name":null,
    "street_name":"Lebuh Melati 72",
    "locality":"Bandar Sentosa",
    "postcode":"40100",
    "city":"Petaling Jaya",
    "district":"Petaling Jaya",
    "state":"Selangor",
    "latitude":1.008942,
    "longitude":118.066729
  },
  {
    "id":109,
    "unit_no":"128",
    "building_name":null,
    "street_name":"Jalan Tun Cempaka 56",
    "locality":"Pusat Perdagangan Permai",
    "postcode":"15000",
    "city":"Kota Bharu",
    "district":"Kota Bharu",
    "state":"Kelantan",
    "latitude":2.686212,
    "longitude":100.053985
  },
  {
    "id":110,
    "unit_no":"137",
    "building_name":null,
    "street_name":"Jalan Datuk Cempaka 37",
    "locality":"Pusat Perdagangan Indah",
    "postcode":"90000",
    "city":"Sandakan",
    "district":"Sandakan",
    "state":"Sabah",
    "latitude":6.339936,
    "longitude":116.150477
  },
  {
    "id":111,
    "unit_no":"71",
    "building_name":null,
    "street_name":"Jalan Datuk Cempaka 14",
    "locality":"Bandar Jaya",
    "postcode":"88000",
    "city":"Sandakan",
    "district":"Sandakan",
    "state":"Sabah",
    "latitude":2.020138,
    "longitude":117.742471
  },
  {
    "id":112,
    "unit_no":"99",
    "building_name":null,
    "street_name":"Lebuh Sri 54",
    "locality":"Bandar Jaya",
    "postcode":"75100",
    "city":"Melaka",
    "district":"Melaka",
    "state":"Melaka",
    "latitude":6.799463,
    "longitude":101.50657
  },
  {
    "id":113,
    "unit_no":"7",
    "building_name":null,
    "street_name":"Jalan Tun Sri 43",
    "locality":"Pusat Perdagangan Sentosa",
    "postcode":"88000",
    "city":"Sandakan",
    "district":"Sandakan",
    "state":"Sabah",
    "latitude":4.348736,
    "longitude":118.784435
  },
  {
    "id":114,
    "unit_no":"135",
    "building_name":null,
    "street_name":"Lebuh Indah 33",
    "locality":"Bandar Utama",
    "postcode":"75100",
    "city":"Melaka",
    "district":"Melaka",
    "state":"Melaka",
    "latitude":1.471162,
    "longitude":106.167576
  },
  {
    "id":115,
    "unit_no":"35",
    "building_name":null,
    "street_name":"Jalan Raya 71",
    "locality":"Kampung Bestari",
    "postcode":"83000",
    "city":"Johor Bahru",
    "district":"Johor Bahru",
    "state":"Johor",
    "latitude":5.57311,
    "longitude":109.575449
  },
  {
    "id":116,
    "unit_no":"91",
    "building_name":null,
    "street_name":"Lebuh Setia 22",
    "locality":"Bandar Utama",
    "postcode":"75100",
    "city":"Melaka",
    "district":"Melaka",
    "state":"Melaka",
    "latitude":4.084454,
    "longitude":101.888798
  },
  {
    "id":117,
    "unit_no":"125",
    "building_name":null,
    "street_name":"Jalan Tun Perdana 5",
    "locality":"Seksyen Permai",
    "postcode":"34000",
    "city":"Taiping",
    "district":"Taiping",
    "state":"Perak",
    "latitude":2.704503,
    "longitude":104.246486
  },
  {
    "id":118,
    "unit_no":"91",
    "building_name":null,
    "street_name":"Persiaran Raya 46",
    "locality":"Pusat Perdagangan Bestari",
    "postcode":"20100",
    "city":"Kuala Terengganu",
    "district":"Kuala Terengganu",
    "state":"Terengganu",
    "latitude":1.205271,
    "longitude":119.395277
  },
  {
    "id":119,
    "unit_no":"45",
    "building_name":null,
    "street_name":"Lorong Maju 59",
    "locality":"Kampung Indah",
    "postcode":"20000",
    "city":"Kuala Terengganu",
    "district":"Kuala Terengganu",
    "state":"Terengganu",
    "latitude":5.027898,
    "longitude":99.411978
  },
  {
    "id":120,
    "unit_no":"66",
    "building_name":null,
    "street_name":"Jalan Datuk Raya 48",
    "locality":"Kampung Utama",
    "postcode":"70300",
    "city":"Seremban",
    "district":"Seremban",
    "state":"Negeri Sembilan",
    "latitude":3.670071,
    "longitude":114.599476
  },
  {
    "id":121,
    "unit_no":"104",
    "building_name":null,
    "street_name":"Jalan Datuk Indah 39",
    "locality":"Seksyen Bestari",
    "postcode":"70000",
    "city":"Seremban",
    "district":"Seremban",
    "state":"Negeri Sembilan",
    "latitude":6.171262,
    "longitude":113.268207
  },
  {
    "id":122,
    "unit_no":"109",
    "building_name":null,
    "street_name":"Jalan Tun Cempaka 71",
    "locality":"Bandar Jaya",
    "postcode":"25200",
    "city":"Kuantan",
    "district":"Kuantan",
    "state":"Pahang",
    "latitude":5.721081,
    "longitude":101.346784
  },
  {
    "id":123,
    "unit_no":"43",
    "building_name":null,
    "street_name":"Jalan Datuk Setia 20",
    "locality":"Taman Jaya",
    "postcode":"75100",
    "city":"Melaka",
    "district":"Melaka",
    "state":"Melaka",
    "latitude":2.340684,
    "longitude":103.394315
  },
  {
    "id":124,
    "unit_no":"144",
    "building_name":null,
    "street_name":"Lebuh Cempaka 18",
    "locality":"Pusat Perdagangan Bestari",
    "postcode":"15000",
    "city":"Kota Bharu",
    "district":"Kota Bharu",
    "state":"Kelantan",
    "latitude":1.925805,
    "longitude":106.640763
  },
  {
    "id":125,
    "unit_no":"119",
    "building_name":null,
    "street_name":"Lebuh Setia 51",
    "locality":"Pusat Perdagangan Sentosa",
    "postcode":"25200",
    "city":"Kuantan",
    "district":"Kuantan",
    "state":"Pahang",
    "latitude":3.081393,
    "longitude":117.88163
  },
  {
    "id":126,
    "unit_no":"103",
    "building_name":null,
    "street_name":"Persiaran Indah 16",
    "locality":"Taman Jaya",
    "postcode":"98000",
    "city":"Kuching",
    "district":"Kuching",
    "state":"Sarawak",
    "latitude":5.257262,
    "longitude":99.635049
  },
  {
    "id":127,
    "unit_no":"139",
    "building_name":null,
    "street_name":"Jalan Tun Sri 9",
    "locality":"Kampung Jaya",
    "postcode":"55100",
    "city":"Kuala Lumpur",
    "district":"Kuala Lumpur",
    "state":"Wilayah Persekutuan Kuala Lumpur",
    "latitude":2.229143,
    "longitude":113.279203
  },
  {
    "id":128,
    "unit_no":"64",
    "building_name":null,
    "street_name":"Lebuh Perdana 72",
    "locality":"Kampung Utama",
    "postcode":"30300",
    "city":"Taiping",
    "district":"Taiping",
    "state":"Perak",
    "latitude":1.377389,
    "longitude":108.09516
  },
  {
    "id":129,
    "unit_no":"30",
    "building_name":null,
    "street_name":"Lebuh Sri 20",
    "locality":"Taman Utama",
    "postcode":"50000",
    "city":"Kuala Lumpur",
    "district":"Kuala Lumpur",
    "state":"Wilayah Persekutuan Kuala Lumpur",
    "latitude":4.618403,
    "longitude":113.878446
  },
  {
    "id":130,
    "unit_no":"14",
    "building_name":null,
    "street_name":"Lebuh Maju 76",
    "locality":"Bandar Sentosa",
    "postcode":"84000",
    "city":"Muar",
    "district":"Muar",
    "state":"Johor",
    "latitude":2.784144,
    "longitude":108.255424
  },
  {
    "id":131,
    "unit_no":"132",
    "building_name":null,
    "street_name":"Jalan Tun Perdana 28",
    "locality":"Taman Permai",
    "postcode":"20000",
    "city":"Kuala Terengganu",
    "district":"Kuala Terengganu",
    "state":"Terengganu",
    "latitude":5.716359,
    "longitude":106.216851
  },
  {
    "id":132,
    "unit_no":"102",
    "building_name":null,
    "street_name":"Jalan Tun Maju 46",
    "locality":"Seksyen Sentosa",
    "postcode":"10400",
    "city":"Bayan Lepas",
    "district":"Bayan Lepas",
    "state":"Pulau Pinang",
    "latitude":6.226055,
    "longitude":113.300178
  },
  {
    "id":133,
    "unit_no":"28",
    "building_name":null,
    "street_name":"Jalan Tun Setia 98",
    "locality":"Taman Permai",
    "postcode":"05000",
    "city":"Langkawi",
    "district":"Langkawi",
    "state":"Kedah",
    "latitude":3.15569,
    "longitude":119.376302
  },
  {
    "id":134,
    "unit_no":"14",
    "building_name":null,
    "street_name":"Jalan Tun Melati 89",
    "locality":"Pusat Perdagangan Permai",
    "postcode":"20100",
    "city":"Kuala Terengganu",
    "district":"Kuala Terengganu",
    "state":"Terengganu",
    "latitude":3.284667,
    "longitude":105.838375
  },
  {
    "id":135,
    "unit_no":"90",
    "building_name":null,
    "street_name":"Persiaran Indah 8",
    "locality":"Kampung Jaya",
    "postcode":"20000",
    "city":"Kuala Terengganu",
    "district":"Kuala Terengganu",
    "state":"Terengganu",
    "latitude":1.454683,
    "longitude":106.516402
  },
  {
    "id":136,
    "unit_no":"23",
    "building_name":null,
    "street_name":"Jalan Perdana 75",
    "locality":"Pusat Perdagangan Bestari",
    "postcode":"70000",
    "city":"Seremban",
    "district":"Seremban",
    "state":"Negeri Sembilan",
    "latitude":2.375255,
    "longitude":103.998045
  },
  {
    "id":137,
    "unit_no":"88",
    "building_name":null,
    "street_name":"Persiaran Sri 47",
    "locality":"Pusat Perdagangan Utama",
    "postcode":"01000",
    "city":"Kangar",
    "district":"Kangar",
    "state":"Perlis",
    "latitude":6.309237,
    "longitude":105.555949
  },
  {
    "id":138,
    "unit_no":"146",
    "building_name":null,
    "street_name":"Jalan Datuk Cempaka 39",
    "locality":"Bandar Indah",
    "postcode":"55100",
    "city":"Kuala Lumpur",
    "district":"Kuala Lumpur",
    "state":"Wilayah Persekutuan Kuala Lumpur",
    "latitude":3.051763,
    "longitude":103.31878
  },
  {
    "id":139,
    "unit_no":"58",
    "building_name":null,
    "street_name":"Lebuh Cempaka 79",
    "locality":"Seksyen Utama",
    "postcode":"01000",
    "city":"Kangar",
    "district":"Kangar",
    "state":"Perlis",
    "latitude":2.983654,
    "longitude":114.562551
  },
  {
    "id":140,
    "unit_no":"127",
    "building_name":null,
    "street_name":"Jalan Tun Setia 65",
    "locality":"Kampung Jaya",
    "postcode":"15000",
    "city":"Kota Bharu",
    "district":"Kota Bharu",
    "state":"Kelantan",
    "latitude":1.503317,
    "longitude":102.636514
  },
  {
    "id":141,
    "unit_no":"53",
    "building_name":null,
    "street_name":"Jalan Datuk Sri 97",
    "locality":"Bandar Jaya",
    "postcode":"40000",
    "city":"Subang Jaya",
    "district":"Subang Jaya",
    "state":"Selangor",
    "latitude":5.006153,
    "longitude":106.401841
  },
  {
    "id":142,
    "unit_no":"106",
    "building_name":null,
    "street_name":"Jalan Tun Melati 50",
    "locality":"Pusat Perdagangan Utama",
    "postcode":"47600",
    "city":"Petaling Jaya",
    "district":"Petaling Jaya",
    "state":"Selangor",
    "latitude":5.197897,
    "longitude":99.934394
  },
  {
    "id":143,
    "unit_no":"30",
    "building_name":null,
    "street_name":"Lebuh Indah 93",
    "locality":"Kampung Sentosa",
    "postcode":"50000",
    "city":"Kuala Lumpur",
    "district":"Kuala Lumpur",
    "state":"Wilayah Persekutuan Kuala Lumpur",
    "latitude":1.761509,
    "longitude":103.198767
  },
  {
    "id":144,
    "unit_no":"64",
    "building_name":null,
    "street_name":"Jalan Tun Indah 29",
    "locality":"Pusat Perdagangan Utama",
    "postcode":"70300",
    "city":"Seremban",
    "district":"Seremban",
    "state":"Negeri Sembilan",
    "latitude":1.277857,
    "longitude":119.342878
  },
  {
    "id":145,
    "unit_no":"115",
    "building_name":null,
    "street_name":"Persiaran Perdana 17",
    "locality":"Bandar Sentosa",
    "postcode":"20000",
    "city":"Kuala Terengganu",
    "district":"Kuala Terengganu",
    "state":"Terengganu",
    "latitude":6.606745,
    "longitude":108.114062
  },
  {
    "id":146,
    "unit_no":"90",
    "building_name":null,
    "street_name":"Jalan Datuk Raya 82",
    "locality":"Pusat Perdagangan Permai",
    "postcode":"34000",
    "city":"Taiping",
    "district":"Taiping",
    "state":"Perak",
    "latitude":6.77079,
    "longitude":99.504777
  },
  {
    "id":147,
    "unit_no":"111",
    "building_name":null,
    "street_name":"Lebuh Melati 47",
    "locality":"Kampung Permai",
    "postcode":"55100",
    "city":"Kuala Lumpur",
    "district":"Kuala Lumpur",
    "state":"Wilayah Persekutuan Kuala Lumpur",
    "latitude":2.408155,
    "longitude":99.367398
  },
  {
    "id":148,
    "unit_no":"57",
    "building_name":null,
    "street_name":"Jalan Tun Cempaka 16",
    "locality":"Bandar Sentosa",
    "postcode":"10400",
    "city":"Bayan Lepas",
    "district":"Bayan Lepas",
    "state":"Pulau Pinang",
    "latitude":4.514067,
    "longitude":115.605784
  },
  {
    "id":149,
    "unit_no":"27",
    "building_name":null,
    "street_name":"Persiaran Raya 92",
    "locality":"Taman Bestari",
    "postcode":"70000",
    "city":"Seremban",
    "district":"Seremban",
    "state":"Negeri Sembilan",
    "latitude":6.750251,
    "longitude":99.369058
  },
  {
    "id":150,
    "unit_no":"24",
    "building_name":null,
    "street_name":"Lorong Sri 51",
    "locality":"Taman Indah",
    "postcode":"40460",
    "city":"Petaling Jaya",
    "district":"Petaling Jaya",
    "state":"Selangor",
    "latitude":1.661766,
    "longitude":113.311182
  },
  {
    "id":151,
    "unit_no":"2",
    "building_name":null,
    "street_name":"Persiaran Setia 88",
    "locality":"Kampung Jaya",
    "postcode":"08000",
    "city":"Langkawi",
    "district":"Langkawi",
    "state":"Kedah",
    "latitude":1.747928,
    "longitude":115.209213
  },
  {
    "id":152,
    "unit_no":"57",
    "building_name":null,
    "street_name":"Jalan Datuk Maju 59",
    "locality":"Seksyen Utama",
    "postcode":"30000",
    "city":"Ipoh",
    "district":"Ipoh",
    "state":"Perak",
    "latitude":1.463575,
    "longitude":107.837619
  },
  {
    "id":153,
    "unit_no":"114",
    "building_name":null,
    "street_name":"Lorong Perdana 85",
    "locality":"Seksyen Indah",
    "postcode":"25200",
    "city":"Kuantan",
    "district":"Kuantan",
    "state":"Pahang",
    "latitude":2.102545,
    "longitude":100.64802
  },
  {
    "id":154,
    "unit_no":"23",
    "building_name":null,
    "street_name":"Jalan Datuk Raya 29",
    "locality":"Bandar Indah",
    "postcode":"81100",
    "city":"Batu Pahat",
    "district":"Batu Pahat",
    "state":"Johor",
    "latitude":5.392037,
    "longitude":107.051229
  },
  {
    "id":155,
    "unit_no":"63",
    "building_name":null,
    "street_name":"Jalan Perdana 1",
    "locality":"Taman Jaya",
    "postcode":"25200",
    "city":"Kuantan",
    "district":"Kuantan",
    "state":"Pahang",
    "latitude":4.443904,
    "longitude":113.147277
  },
  {
    "id":156,
    "unit_no":"99",
    "building_name":null,
    "street_name":"Lebuh Indah 79",
    "locality":"Seksyen Permai",
    "postcode":"75100",
    "city":"Melaka",
    "district":"Melaka",
    "state":"Melaka",
    "latitude":5.269476,
    "longitude":104.741277
  },
  {
    "id":157,
    "unit_no":"105",
    "building_name":null,
    "street_name":"Persiaran Sri 53",
    "locality":"Kampung Permai",
    "postcode":"07000",
    "city":"Sungai Petani",
    "district":"Sungai Petani",
    "state":"Kedah",
    "latitude":5.721777,
    "longitude":110.141268
  },
  {
    "id":158,
    "unit_no":"3",
    "building_name":null,
    "street_name":"Jalan Datuk Melati 46",
    "locality":"Taman Sentosa",
    "postcode":"01000",
    "city":"Kangar",
    "district":"Kangar",
    "state":"Perlis",
    "latitude":2.120667,
    "longitude":101.58624
  },
  {
    "id":159,
    "unit_no":"71",
    "building_name":null,
    "street_name":"Jalan Datuk Sri 99",
    "locality":"Bandar Sentosa",
    "postcode":"88000",
    "city":"Kota Kinabalu",
    "district":"Kota Kinabalu",
    "state":"Sabah",
    "latitude":2.605129,
    "longitude":108.585758
  },
  {
    "id":160,
    "unit_no":"75",
    "building_name":null,
    "street_name":"Jalan Tun Sri 8",
    "locality":"Kampung Sentosa",
    "postcode":"01000",
    "city":"Kangar",
    "district":"Kangar",
    "state":"Perlis",
    "latitude":1.513966,
    "longitude":105.404462
  },
  {
    "id":161,
    "unit_no":"60",
    "building_name":null,
    "street_name":"Lebuh Perdana 97",
    "locality":"Kampung Sentosa",
    "postcode":"75100",
    "city":"Melaka",
    "district":"Melaka",
    "state":"Melaka",
    "latitude":6.275747,
    "longitude":110.312985
  },
  {
    "id":162,
    "unit_no":"121",
    "building_name":null,
    "street_name":"Lorong Sri 15",
    "locality":"Pusat Perdagangan Sentosa",
    "postcode":"98000",
    "city":"Miri",
    "district":"Miri",
    "state":"Sarawak",
    "latitude":1.722488,
    "longitude":104.741924
  },
  {
    "id":163,
    "unit_no":"91",
    "building_name":null,
    "street_name":"Lebuh Perdana 57",
    "locality":"Taman Permai",
    "postcode":"34000",
    "city":"Taiping",
    "district":"Taiping",
    "state":"Perak",
    "latitude":4.613125,
    "longitude":117.476483
  },
  {
    "id":164,
    "unit_no":"86",
    "building_name":null,
    "street_name":"Lebuh Indah 86",
    "locality":"Bandar Jaya",
    "postcode":"93100",
    "city":"Kuching",
    "district":"Kuching",
    "state":"Sarawak",
    "latitude":6.054503,
    "longitude":113.927845
  },
  {
    "id":165,
    "unit_no":"1",
    "building_name":null,
    "street_name":"Jalan Datuk Indah 66",
    "locality":"Kampung Indah",
    "postcode":"20000",
    "city":"Kuala Terengganu",
    "district":"Kuala Terengganu",
    "state":"Terengganu",
    "latitude":3.806486,
    "longitude":105.196555
  },
  {
    "id":166,
    "unit_no":"138",
    "building_name":null,
    "street_name":"Jalan Datuk Indah 83",
    "locality":"Taman Jaya",
    "postcode":"25200",
    "city":"Kuantan",
    "district":"Kuantan",
    "state":"Pahang",
    "latitude":2.342599,
    "longitude":99.100332
  },
  {
    "id":167,
    "unit_no":"142",
    "building_name":null,
    "street_name":"Jalan Datuk Perdana 37",
    "locality":"Taman Utama",
    "postcode":"20100",
    "city":"Kuala Terengganu",
    "district":"Kuala Terengganu",
    "state":"Terengganu",
    "latitude":3.868282,
    "longitude":105.827956
  },
  {
    "id":168,
    "unit_no":"50",
    "building_name":null,
    "street_name":"Jalan Tun Setia 43",
    "locality":"Kampung Indah",
    "postcode":"01000",
    "city":"Kangar",
    "district":"Kangar",
    "state":"Perlis",
    "latitude":2.606464,
    "longitude":99.461588
  },
  {
    "id":169,
    "unit_no":"130",
    "building_name":null,
    "street_name":"Jalan Datuk Indah 77",
    "locality":"Seksyen Indah",
    "postcode":"07000",
    "city":"Sungai Petani",
    "district":"Sungai Petani",
    "state":"Kedah",
    "latitude":6.277907,
    "longitude":99.122827
  },
  {
    "id":170,
    "unit_no":"92",
    "building_name":null,
    "street_name":"Jalan Datuk Sri 48",
    "locality":"Kampung Permai",
    "postcode":"08000",
    "city":"Alor Setar",
    "district":"Alor Setar",
    "state":"Kedah",
    "latitude":2.77681,
    "longitude":116.183216
  },
  {
    "id":171,
    "unit_no":"56",
    "building_name":null,
    "street_name":"Jalan Datuk Indah 44",
    "locality":"Pusat Perdagangan Permai",
    "postcode":"70300",
    "city":"Seremban",
    "district":"Seremban",
    "state":"Negeri Sembilan",
    "latitude":2.349811,
    "longitude":105.996789
  },
  {
    "id":172,
    "unit_no":"2",
    "building_name":null,
    "street_name":"Jalan Setia 71",
    "locality":"Bandar Sentosa",
    "postcode":"84000",
    "city":"Batu Pahat",
    "district":"Batu Pahat",
    "state":"Johor",
    "latitude":3.115284,
    "longitude":108.955237
  },
  {
    "id":173,
    "unit_no":"111",
    "building_name":null,
    "street_name":"Jalan Raya 23",
    "locality":"Kampung Sentosa",
    "postcode":"70000",
    "city":"Seremban",
    "district":"Seremban",
    "state":"Negeri Sembilan",
    "latitude":4.695242,
    "longitude":100.732145
  },
  {
    "id":174,
    "unit_no":"21",
    "building_name":null,
    "street_name":"Jalan Maju 81",
    "locality":"Seksyen Utama",
    "postcode":"98000",
    "city":"Miri",
    "district":"Miri",
    "state":"Sarawak",
    "latitude":3.078714,
    "longitude":108.044249
  },
  {
    "id":175,
    "unit_no":"49",
    "building_name":null,
    "street_name":"Jalan Datuk Maju 42",
    "locality":"Kampung Bestari",
    "postcode":"80350",
    "city":"Batu Pahat",
    "district":"Batu Pahat",
    "state":"Johor",
    "latitude":3.220524,
    "longitude":101.789204
  },
  {
    "id":176,
    "unit_no":"74",
    "building_name":null,
    "street_name":"Jalan Tun Indah 48",
    "locality":"Taman Utama",
    "postcode":"20000",
    "city":"Kuala Terengganu",
    "district":"Kuala Terengganu",
    "state":"Terengganu",
    "latitude":2.254569,
    "longitude":99.601973
  },
  {
    "id":177,
    "unit_no":"150",
    "building_name":null,
    "street_name":"Jalan Tun Sri 19",
    "locality":"Taman Jaya",
    "postcode":"75100",
    "city":"Melaka",
    "district":"Melaka",
    "state":"Melaka",
    "latitude":5.185345,
    "longitude":106.834122
  },
  {
    "id":178,
    "unit_no":"47",
    "building_name":null,
    "street_name":"Jalan Datuk Cempaka 6",
    "locality":"Seksyen Jaya",
    "postcode":"75100",
    "city":"Melaka",
    "district":"Melaka",
    "state":"Melaka",
    "latitude":5.300283,
    "longitude":114.366935
  },
  {
    "id":179,
    "unit_no":"35",
    "building_name":null,
    "street_name":"Jalan Sri 97",
    "locality":"Seksyen Indah",
    "postcode":"25000",
    "city":"Kuantan",
    "district":"Kuantan",
    "state":"Pahang",
    "latitude":1.575484,
    "longitude":100.446541
  },
  {
    "id":180,
    "unit_no":"57",
    "building_name":null,
    "street_name":"Lorong Setia 42",
    "locality":"Bandar Permai",
    "postcode":"70000",
    "city":"Seremban",
    "district":"Seremban",
    "state":"Negeri Sembilan",
    "latitude":5.271722,
    "longitude":116.881195
  },
  {
    "id":181,
    "unit_no":"132",
    "building_name":null,
    "street_name":"Jalan Melati 77",
    "locality":"Seksyen Bestari",
    "postcode":"30300",
    "city":"Taiping",
    "district":"Taiping",
    "state":"Perak",
    "latitude":5.684848,
    "longitude":111.551015
  },
  {
    "id":182,
    "unit_no":"149",
    "building_name":null,
    "street_name":"Jalan Datuk Indah 18",
    "locality":"Kampung Bestari",
    "postcode":"15000",
    "city":"Kota Bharu",
    "district":"Kota Bharu",
    "state":"Kelantan",
    "latitude":3.806457,
    "longitude":101.549671
  },
  {
    "id":183,
    "unit_no":"78",
    "building_name":null,
    "street_name":"Jalan Tun Indah 96",
    "locality":"Taman Sentosa",
    "postcode":"47300",
    "city":"Klang",
    "district":"Klang",
    "state":"Selangor",
    "latitude":4.544885,
    "longitude":106.324495
  },
  {
    "id":184,
    "unit_no":"4",
    "building_name":null,
    "street_name":"Lorong Raya 8",
    "locality":"Pusat Perdagangan Utama",
    "postcode":"30000",
    "city":"Taiping",
    "district":"Taiping",
    "state":"Perak",
    "latitude":2.729031,
    "longitude":102.096042
  },
  {
    "id":185,
    "unit_no":"19",
    "building_name":null,
    "street_name":"Jalan Perdana 61",
    "locality":"Pusat Perdagangan Bestari",
    "postcode":"50100",
    "city":"Kuala Lumpur",
    "district":"Kuala Lumpur",
    "state":"Wilayah Persekutuan Kuala Lumpur",
    "latitude":4.568774,
    "longitude":107.120175
  },
  {
    "id":186,
    "unit_no":"107",
    "building_name":null,
    "street_name":"Jalan Tun Melati 54",
    "locality":"Bandar Permai",
    "postcode":"20000",
    "city":"Kuala Terengganu",
    "district":"Kuala Terengganu",
    "state":"Terengganu",
    "latitude":3.719102,
    "longitude":100.889872
  },
  {
    "id":187,
    "unit_no":"114",
    "building_name":null,
    "street_name":"Jalan Datuk Melati 98",
    "locality":"Kampung Bestari",
    "postcode":"70000",
    "city":"Seremban",
    "district":"Seremban",
    "state":"Negeri Sembilan",
    "latitude":1.481776,
    "longitude":117.493364
  },
  {
    "id":188,
    "unit_no":"88",
    "building_name":null,
    "street_name":"Persiaran Indah 81",
    "locality":"Kampung Jaya",
    "postcode":"75100",
    "city":"Melaka",
    "district":"Melaka",
    "state":"Melaka",
    "latitude":2.85356,
    "longitude":105.512127
  },
  {
    "id":189,
    "unit_no":"94",
    "building_name":null,
    "street_name":"Jalan Indah 8",
    "locality":"Seksyen Permai",
    "postcode":"70300",
    "city":"Seremban",
    "district":"Seremban",
    "state":"Negeri Sembilan",
    "latitude":6.233705,
    "longitude":109.314033
  },
  {
    "id":190,
    "unit_no":"112",
    "building_name":null,
    "street_name":"Persiaran Cempaka 14",
    "locality":"Pusat Perdagangan Bestari",
    "postcode":"15000",
    "city":"Kota Bharu",
    "district":"Kota Bharu",
    "state":"Kelantan",
    "latitude":6.201593,
    "longitude":118.986529
  },
  {
    "id":191,
    "unit_no":"49",
    "building_name":null,
    "street_name":"Lebuh Indah 10",
    "locality":"Pusat Perdagangan Permai",
    "postcode":"15400",
    "city":"Kota Bharu",
    "district":"Kota Bharu",
    "state":"Kelantan",
    "latitude":1.166259,
    "longitude":99.724189
  },
  {
    "id":192,
    "unit_no":"93",
    "building_name":null,
    "street_name":"Jalan Datuk Setia 49",
    "locality":"Kampung Permai",
    "postcode":"80000",
    "city":"Batu Pahat",
    "district":"Batu Pahat",
    "state":"Johor",
    "latitude":5.98222,
    "longitude":107.754501
  },
  {
    "id":193,
    "unit_no":"69",
    "building_name":null,
    "street_name":"Persiaran Perdana 93",
    "locality":"Kampung Utama",
    "postcode":"15000",
    "city":"Kota Bharu",
    "district":"Kota Bharu",
    "state":"Kelantan",
    "latitude":1.130752,
    "longitude":111.939955
  },
  {
    "id":194,
    "unit_no":"16",
    "building_name":null,
    "street_name":"Lorong Indah 60",
    "locality":"Kampung Utama",
    "postcode":"25000",
    "city":"Kuantan",
    "district":"Kuantan",
    "state":"Pahang",
    "latitude":5.7518,
    "longitude":103.764969
  },
  {
    "id":195,
    "unit_no":"129",
    "building_name":null,
    "street_name":"Persiaran Sri 92",
    "locality":"Kampung Sentosa",
    "postcode":"10000",
    "city":"Bayan Lepas",
    "district":"Bayan Lepas",
    "state":"Pulau Pinang",
    "latitude":1.924844,
    "longitude":116.70974
  },
  {
    "id":196,
    "unit_no":"80",
    "building_name":null,
    "street_name":"Lorong Raya 79",
    "locality":"Bandar Sentosa",
    "postcode":"83000",
    "city":"Batu Pahat",
    "district":"Batu Pahat",
    "state":"Johor",
    "latitude":1.230633,
    "longitude":103.897716
  },
  {
    "id":197,
    "unit_no":"70",
    "building_name":null,
    "street_name":"Lebuh Maju 95",
    "locality":"Pusat Perdagangan Utama",
    "postcode":"75100",
    "city":"Melaka",
    "district":"Melaka",
    "state":"Melaka",
    "latitude":3.580043,
    "longitude":118.582239
  },
  {
    "id":198,
    "unit_no":"65",
    "building_name":null,
    "street_name":"Jalan Tun Raya 36",
    "locality":"Seksyen Indah",
    "postcode":"56000",
    "city":"Kuala Lumpur",
    "district":"Kuala Lumpur",
    "state":"Wilayah Persekutuan Kuala Lumpur",
    "latitude":3.357152,
    "longitude":110.935615
  },
  {
    "id":199,
    "unit_no":"95",
    "building_name":null,
    "street_name":"Jalan Tun Setia 36",
    "locality":"Bandar Permai",
    "postcode":"70000",
    "city":"Seremban",
    "district":"Seremban",
    "state":"Negeri Sembilan",
    "latitude":6.679511,
    "longitude":106.51564
  },
  {
    "id":200,
    "unit_no":"58",
    "building_name":null,
    "street_name":"Lebuh Melati 8",
    "locality":"Bandar Indah",
    "postcode":"01000",
    "city":"Kangar",
    "district":"Kangar",
    "state":"Perlis",
    "latitude":6.246492,
    "longitude":108.579612
  },
  {
    "id":201,
    "unit_no":"146",
    "building_name":null,
    "street_name":"Jalan Melati 93",
    "locality":"Taman Permai",
    "postcode":"20000",
    "city":"Kuala Terengganu",
    "district":"Kuala Terengganu",
    "state":"Terengganu",
    "latitude":6.691524,
    "longitude":116.229942
  },
  {
    "id":202,
    "unit_no":"110",
    "building_name":null,
    "street_name":"Jalan Tun Melati 95",
    "locality":"Taman Utama",
    "postcode":"70300",
    "city":"Seremban",
    "district":"Seremban",
    "state":"Negeri Sembilan",
    "latitude":6.050558,
    "longitude":107.241314
  },
  {
    "id":203,
    "unit_no":"35",
    "building_name":null,
    "street_name":"Jalan Indah 2",
    "locality":"Seksyen Jaya",
    "postcode":"60000",
    "city":"Kuala Lumpur",
    "district":"Kuala Lumpur",
    "state":"Wilayah Persekutuan Kuala Lumpur",
    "latitude":1.732952,
    "longitude":114.300607
  },
  {
    "id":204,
    "unit_no":"7",
    "building_name":null,
    "street_name":"Jalan Tun Sri 92",
    "locality":"Taman Utama",
    "postcode":"80350",
    "city":"Muar",
    "district":"Muar",
    "state":"Johor",
    "latitude":6.670225,
    "longitude":106.005196
  },
  {
    "id":205,
    "unit_no":"37",
    "building_name":null,
    "street_name":"Jalan Datuk Maju 2",
    "locality":"Bandar Indah",
    "postcode":"88000",
    "city":"Kota Kinabalu",
    "district":"Kota Kinabalu",
    "state":"Sabah",
    "latitude":5.509786,
    "longitude":101.099447
  },
  {
    "id":206,
    "unit_no":"99",
    "building_name":null,
    "street_name":"Lorong Sri 6",
    "locality":"Kampung Bestari",
    "postcode":"01000",
    "city":"Kangar",
    "district":"Kangar",
    "state":"Perlis",
    "latitude":1.223781,
    "longitude":107.499262
  },
  {
    "id":207,
    "unit_no":"143",
    "building_name":null,
    "street_name":"Jalan Datuk Sri 54",
    "locality":"Pusat Perdagangan Permai",
    "postcode":"20000",
    "city":"Kuala Terengganu",
    "district":"Kuala Terengganu",
    "state":"Terengganu",
    "latitude":3.860277,
    "longitude":114.912931
  },
  {
    "id":208,
    "unit_no":"68",
    "building_name":null,
    "street_name":"Lebuh Indah 39",
    "locality":"Bandar Sentosa",
    "postcode":"75000",
    "city":"Melaka",
    "district":"Melaka",
    "state":"Melaka",
    "latitude":2.8449,
    "longitude":108.521685
  },
  {
    "id":209,
    "unit_no":"96",
    "building_name":null,
    "street_name":"Jalan Tun Melati 87",
    "locality":"Bandar Permai",
    "postcode":"10000",
    "city":"Bayan Lepas",
    "district":"Bayan Lepas",
    "state":"Pulau Pinang",
    "latitude":3.036823,
    "longitude":109.246756
  },
  {
    "id":210,
    "unit_no":"6",
    "building_name":null,
    "street_name":"Persiaran Setia 29",
    "locality":"Kampung Sentosa",
    "postcode":"30300",
    "city":"Taiping",
    "district":"Taiping",
    "state":"Perak",
    "latitude":3.342392,
    "longitude":115.678311
  },
  {
    "id":211,
    "unit_no":"27",
    "building_name":null,
    "street_name":"Jalan Tun Setia 89",
    "locality":"Pusat Perdagangan Jaya",
    "postcode":"15000",
    "city":"Kota Bharu",
    "district":"Kota Bharu",
    "state":"Kelantan",
    "latitude":3.555077,
    "longitude":116.278864
  },
  {
    "id":212,
    "unit_no":"51",
    "building_name":null,
    "street_name":"Persiaran Perdana 5",
    "locality":"Pusat Perdagangan Permai",
    "postcode":"83000",
    "city":"Batu Pahat",
    "district":"Batu Pahat",
    "state":"Johor",
    "latitude":4.491181,
    "longitude":100.596614
  },
  {
    "id":213,
    "unit_no":"38",
    "building_name":null,
    "street_name":"Jalan Setia 21",
    "locality":"Pusat Perdagangan Indah",
    "postcode":"88000",
    "city":"Kota Kinabalu",
    "district":"Kota Kinabalu",
    "state":"Sabah",
    "latitude":6.024045,
    "longitude":100.68939
  },
  {
    "id":214,
    "unit_no":"127",
    "building_name":null,
    "street_name":"Lebuh Melati 90",
    "locality":"Pusat Perdagangan Permai",
    "postcode":"47300",
    "city":"Petaling Jaya",
    "district":"Petaling Jaya",
    "state":"Selangor",
    "latitude":3.991935,
    "longitude":103.305636
  },
  {
    "id":215,
    "unit_no":"121",
    "building_name":null,
    "street_name":"Jalan Tun Perdana 26",
    "locality":"Taman Jaya",
    "postcode":"10400",
    "city":"Bayan Lepas",
    "district":"Bayan Lepas",
    "state":"Pulau Pinang",
    "latitude":3.499874,
    "longitude":118.927554
  },
  {
    "id":216,
    "unit_no":"70",
    "building_name":null,
    "street_name":"Persiaran Sri 38",
    "locality":"Taman Indah",
    "postcode":"90000",
    "city":"Sandakan",
    "district":"Sandakan",
    "state":"Sabah",
    "latitude":5.605027,
    "longitude":107.299593
  },
  {
    "id":217,
    "unit_no":"101",
    "building_name":null,
    "street_name":"Lorong Maju 15",
    "locality":"Bandar Sentosa",
    "postcode":"88000",
    "city":"Sandakan",
    "district":"Sandakan",
    "state":"Sabah",
    "latitude":2.752684,
    "longitude":109.756926
  },
  {
    "id":218,
    "unit_no":"47",
    "building_name":null,
    "street_name":"Jalan Datuk Indah 44",
    "locality":"Seksyen Indah",
    "postcode":"47300",
    "city":"Subang Jaya",
    "district":"Subang Jaya",
    "state":"Selangor",
    "latitude":3.416318,
    "longitude":113.028391
  },
  {
    "id":219,
    "unit_no":"14",
    "building_name":null,
    "street_name":"Jalan Tun Sri 74",
    "locality":"Seksyen Jaya",
    "postcode":"90000",
    "city":"Sandakan",
    "district":"Sandakan",
    "state":"Sabah",
    "latitude":5.728339,
    "longitude":103.846541
  },
  {
    "id":220,
    "unit_no":"49",
    "building_name":null,
    "street_name":"Lebuh Cempaka 13",
    "locality":"Kampung Jaya",
    "postcode":"70000",
    "city":"Seremban",
    "district":"Seremban",
    "state":"Negeri Sembilan",
    "latitude":3.577065,
    "longitude":112.895736
  },
  {
    "id":221,
    "unit_no":"82",
    "building_name":null,
    "street_name":"Lorong Melati 78",
    "locality":"Seksyen Permai",
    "postcode":"25200",
    "city":"Kuantan",
    "district":"Kuantan",
    "state":"Pahang",
    "latitude":2.115483,
    "longitude":115.488954
  },
  {
    "id":222,
    "unit_no":"146",
    "building_name":null,
    "street_name":"Lebuh Indah 59",
    "locality":"Taman Utama",
    "postcode":"25200",
    "city":"Kuantan",
    "district":"Kuantan",
    "state":"Pahang",
    "latitude":1.405909,
    "longitude":105.425639
  },
  {
    "id":223,
    "unit_no":"148",
    "building_name":null,
    "street_name":"Jalan Datuk Cempaka 17",
    "locality":"Pusat Perdagangan Sentosa",
    "postcode":"20000",
    "city":"Kuala Terengganu",
    "district":"Kuala Terengganu",
    "state":"Terengganu",
    "latitude":3.16723,
    "longitude":102.760924
  },
  {
    "id":224,
    "unit_no":"106",
    "building_name":null,
    "street_name":"Jalan Datuk Cempaka 7",
    "locality":"Seksyen Permai",
    "postcode":"80350",
    "city":"Batu Pahat",
    "district":"Batu Pahat",
    "state":"Johor",
    "latitude":1.74423,
    "longitude":115.776583
  },
  {
    "id":225,
    "unit_no":"127",
    "building_name":null,
    "street_name":"Jalan Cempaka 65",
    "locality":"Seksyen Indah",
    "postcode":"56000",
    "city":"Kuala Lumpur",
    "district":"Kuala Lumpur",
    "state":"Wilayah Persekutuan Kuala Lumpur",
    "latitude":6.333881,
    "longitude":102.458177
  },
  {
    "id":226,
    "unit_no":"88",
    "building_name":null,
    "street_name":"Jalan Setia 33",
    "locality":"Bandar Indah",
    "postcode":"01000",
    "city":"Kangar",
    "district":"Kangar",
    "state":"Perlis",
    "latitude":5.157743,
    "longitude":107.429031
  },
  {
    "id":227,
    "unit_no":"147",
    "building_name":null,
    "street_name":"Jalan Datuk Melati 17",
    "locality":"Seksyen Indah",
    "postcode":"40000",
    "city":"Subang Jaya",
    "district":"Subang Jaya",
    "state":"Selangor",
    "latitude":6.186328,
    "longitude":100.441309
  },
  {
    "id":228,
    "unit_no":"70",
    "building_name":null,
    "street_name":"Jalan Sri 96",
    "locality":"Taman Jaya",
    "postcode":"20000",
    "city":"Kuala Terengganu",
    "district":"Kuala Terengganu",
    "state":"Terengganu",
    "latitude":2.422871,
    "longitude":100.085403
  },
  {
    "id":229,
    "unit_no":"107",
    "building_name":null,
    "street_name":"Persiaran Indah 62",
    "locality":"Kampung Utama",
    "postcode":"81100",
    "city":"Batu Pahat",
    "district":"Batu Pahat",
    "state":"Johor",
    "latitude":1.402746,
    "longitude":106.550988
  },
  {
    "id":230,
    "unit_no":"62",
    "building_name":null,
    "street_name":"Jalan Tun Maju 28",
    "locality":"Taman Permai",
    "postcode":"10400",
    "city":"Bayan Lepas",
    "district":"Bayan Lepas",
    "state":"Pulau Pinang",
    "latitude":2.92461,
    "longitude":111.337275
  },
  {
    "id":231,
    "unit_no":"72",
    "building_name":null,
    "street_name":"Persiaran Melati 13",
    "locality":"Pusat Perdagangan Indah",
    "postcode":"47300",
    "city":"Subang Jaya",
    "district":"Subang Jaya",
    "state":"Selangor",
    "latitude":1.809024,
    "longitude":111.442498
  },
  {
    "id":232,
    "unit_no":"64",
    "building_name":null,
    "street_name":"Lorong Cempaka 1",
    "locality":"Bandar Bestari",
    "postcode":"10000",
    "city":"Bayan Lepas",
    "district":"Bayan Lepas",
    "state":"Pulau Pinang",
    "latitude":1.049924,
    "longitude":112.887668
  },
  {
    "id":233,
    "unit_no":"86",
    "building_name":null,
    "street_name":"Jalan Datuk Maju 55",
    "locality":"Seksyen Jaya",
    "postcode":"40000",
    "city":"Shah Alam",
    "district":"Shah Alam",
    "state":"Selangor",
    "latitude":2.500139,
    "longitude":102.608711
  },
  {
    "id":234,
    "unit_no":"89",
    "building_name":null,
    "street_name":"Lebuh Sri 27",
    "locality":"Taman Indah",
    "postcode":"98000",
    "city":"Miri",
    "district":"Miri",
    "state":"Sarawak",
    "latitude":4.487338,
    "longitude":119.347839
  },
  {
    "id":235,
    "unit_no":"38",
    "building_name":null,
    "street_name":"Lebuh Raya 48",
    "locality":"Seksyen Sentosa",
    "postcode":"70000",
    "city":"Seremban",
    "district":"Seremban",
    "state":"Negeri Sembilan",
    "latitude":3.651173,
    "longitude":101.833043
  },
  {
    "id":236,
    "unit_no":"117",
    "building_name":null,
    "street_name":"Lorong Indah 79",
    "locality":"Kampung Jaya",
    "postcode":"15000",
    "city":"Kota Bharu",
    "district":"Kota Bharu",
    "state":"Kelantan",
    "latitude":4.715292,
    "longitude":106.446607
  },
  {
    "id":237,
    "unit_no":"88",
    "building_name":null,
    "street_name":"Jalan Tun Raya 74",
    "locality":"Seksyen Permai",
    "postcode":"93000",
    "city":"Miri",
    "district":"Miri",
    "state":"Sarawak",
    "latitude":5.787836,
    "longitude":108.878896
  },
  {
    "id":238,
    "unit_no":"110",
    "building_name":null,
    "street_name":"Lorong Sri 19",
    "locality":"Bandar Indah",
    "postcode":"30300",
    "city":"Taiping",
    "district":"Taiping",
    "state":"Perak",
    "latitude":6.753106,
    "longitude":113.914708
  },
  {
    "id":239,
    "unit_no":"43",
    "building_name":null,
    "street_name":"Jalan Datuk Maju 66",
    "locality":"Seksyen Jaya",
    "postcode":"75100",
    "city":"Melaka",
    "district":"Melaka",
    "state":"Melaka",
    "latitude":4.515537,
    "longitude":100.705091
  },
  {
    "id":240,
    "unit_no":"78",
    "building_name":null,
    "street_name":"Jalan Tun Melati 46",
    "locality":"Taman Permai",
    "postcode":"50000",
    "city":"Kuala Lumpur",
    "district":"Kuala Lumpur",
    "state":"Wilayah Persekutuan Kuala Lumpur",
    "latitude":2.514191,
    "longitude":107.804638
  },
  {
    "id":241,
    "unit_no":"70",
    "building_name":null,
    "street_name":"Lorong Indah 88",
    "locality":"Kampung Bestari",
    "postcode":"25000",
    "city":"Kuantan",
    "district":"Kuantan",
    "state":"Pahang",
    "latitude":6.463693,
    "longitude":99.03709
  },
  {
    "id":242,
    "unit_no":"33",
    "building_name":null,
    "street_name":"Jalan Datuk Cempaka 49",
    "locality":"Pusat Perdagangan Utama",
    "postcode":"93100",
    "city":"Miri",
    "district":"Miri",
    "state":"Sarawak",
    "latitude":1.078869,
    "longitude":110.938923
  },
  {
    "id":243,
    "unit_no":"39",
    "building_name":null,
    "street_name":"Jalan Datuk Raya 67",
    "locality":"Bandar Jaya",
    "postcode":"25200",
    "city":"Kuantan",
    "district":"Kuantan",
    "state":"Pahang",
    "latitude":3.832941,
    "longitude":109.173084
  },
  {
    "id":244,
    "unit_no":"124",
    "building_name":null,
    "street_name":"Jalan Datuk Setia 45",
    "locality":"Pusat Perdagangan Permai",
    "postcode":"50100",
    "city":"Kuala Lumpur",
    "district":"Kuala Lumpur",
    "state":"Wilayah Persekutuan Kuala Lumpur",
    "latitude":2.944725,
    "longitude":112.161258
  },
  {
    "id":245,
    "unit_no":"96",
    "building_name":null,
    "street_name":"Jalan Datuk Raya 44",
    "locality":"Kampung Permai",
    "postcode":"34000",
    "city":"Taiping",
    "district":"Taiping",
    "state":"Perak",
    "latitude":1.062214,
    "longitude":107.898237
  },
  {
    "id":246,
    "unit_no":"6",
    "building_name":null,
    "street_name":"Jalan Tun Sri 23",
    "locality":"Kampung Permai",
    "postcode":"47300",
    "city":"Klang",
    "district":"Klang",
    "state":"Selangor",
    "latitude":5.345891,
    "longitude":99.259269
  },
  {
    "id":247,
    "unit_no":"15",
    "building_name":null,
    "street_name":"Jalan Cempaka 43",
    "locality":"Taman Permai",
    "postcode":"01000",
    "city":"Kangar",
    "district":"Kangar",
    "state":"Perlis",
    "latitude":2.135637,
    "longitude":102.736619
  },
  {
    "id":248,
    "unit_no":"103",
    "building_name":null,
    "street_name":"Jalan Tun Cempaka 24",
    "locality":"Pusat Perdagangan Bestari",
    "postcode":"84000",
    "city":"Muar",
    "district":"Muar",
    "state":"Johor",
    "latitude":5.720915,
    "longitude":101.80007
  },
  {
    "id":249,
    "unit_no":"9",
    "building_name":null,
    "street_name":"Lorong Melati 91",
    "locality":"Taman Jaya",
    "postcode":"70000",
    "city":"Seremban",
    "district":"Seremban",
    "state":"Negeri Sembilan",
    "latitude":2.399532,
    "longitude":117.827512
  },
  {
    "id":250,
    "unit_no":"3",
    "building_name":null,
    "street_name":"Lorong Perdana 17",
    "locality":"Kampung Jaya",
    "postcode":"70300",
    "city":"Seremban",
    "district":"Seremban",
    "state":"Negeri Sembilan",
    "latitude":4.135746,
    "longitude":100.730228
  },
  {
    "id":251,
    "unit_no":"80",
    "building_name":null,
    "street_name":"Jalan Datuk Cempaka 50",
    "locality":"Kampung Jaya",
    "postcode":"34000",
    "city":"Taiping",
    "district":"Taiping",
    "state":"Perak",
    "latitude":1.838342,
    "longitude":103.266352
  },
  {
    "id":252,
    "unit_no":"81",
    "building_name":null,
    "street_name":"Jalan Datuk Setia 39",
    "locality":"Taman Utama",
    "postcode":"25200",
    "city":"Kuantan",
    "district":"Kuantan",
    "state":"Pahang",
    "latitude":4.372678,
    "longitude":116.477832
  },
  {
    "id":253,
    "unit_no":"19",
    "building_name":null,
    "street_name":"Lorong Melati 11",
    "locality":"Taman Bestari",
    "postcode":"60000",
    "city":"Kuala Lumpur",
    "district":"Kuala Lumpur",
    "state":"Wilayah Persekutuan Kuala Lumpur",
    "latitude":3.258683,
    "longitude":112.311744
  },
  {
    "id":254,
    "unit_no":"19",
    "building_name":null,
    "street_name":"Jalan Tun Indah 67",
    "locality":"Taman Sentosa",
    "postcode":"47300",
    "city":"Klang",
    "district":"Klang",
    "state":"Selangor",
    "latitude":2.654814,
    "longitude":108.837726
  },
  {
    "id":255,
    "unit_no":"35",
    "building_name":null,
    "street_name":"Jalan Perdana 87",
    "locality":"Seksyen Sentosa",
    "postcode":"34000",
    "city":"Taiping",
    "district":"Taiping",
    "state":"Perak",
    "latitude":2.087535,
    "longitude":111.764728
  },
  {
    "id":256,
    "unit_no":"80",
    "building_name":null,
    "street_name":"Jalan Tun Maju 38",
    "locality":"Taman Permai",
    "postcode":"11900",
    "city":"Bayan Lepas",
    "district":"Bayan Lepas",
    "state":"Pulau Pinang",
    "latitude":2.741446,
    "longitude":104.084452
  },
  {
    "id":257,
    "unit_no":"81",
    "building_name":null,
    "street_name":"Jalan Tun Setia 77",
    "locality":"Seksyen Jaya",
    "postcode":"80350",
    "city":"Batu Pahat",
    "district":"Batu Pahat",
    "state":"Johor",
    "latitude":6.767465,
    "longitude":114.471891
  },
  {
    "id":258,
    "unit_no":"85",
    "building_name":null,
    "street_name":"Lebuh Raya 86",
    "locality":"Seksyen Utama",
    "postcode":"15400",
    "city":"Kota Bharu",
    "district":"Kota Bharu",
    "state":"Kelantan",
    "latitude":2.57209,
    "longitude":116.82855
  },
  {
    "id":259,
    "unit_no":"48",
    "building_name":null,
    "street_name":"Lorong Perdana 56",
    "locality":"Seksyen Indah",
    "postcode":"93100",
    "city":"Kuching",
    "district":"Kuching",
    "state":"Sarawak",
    "latitude":4.101903,
    "longitude":116.214033
  },
  {
    "id":260,
    "unit_no":"41",
    "building_name":null,
    "street_name":"Jalan Melati 7",
    "locality":"Bandar Sentosa",
    "postcode":"88000",
    "city":"Sandakan",
    "district":"Sandakan",
    "state":"Sabah",
    "latitude":3.554246,
    "longitude":111.340852
  },
  {
    "id":261,
    "unit_no":"62",
    "building_name":null,
    "street_name":"Lebuh Perdana 7",
    "locality":"Kampung Utama",
    "postcode":"07000",
    "city":"Alor Setar",
    "district":"Alor Setar",
    "state":"Kedah",
    "latitude":5.755766,
    "longitude":112.86282
  },
  {
    "id":262,
    "unit_no":"142",
    "building_name":null,
    "street_name":"Lebuh Perdana 78",
    "locality":"Pusat Perdagangan Jaya",
    "postcode":"01000",
    "city":"Kangar",
    "district":"Kangar",
    "state":"Perlis",
    "latitude":3.425349,
    "longitude":118.2326
  },
  {
    "id":263,
    "unit_no":"32",
    "building_name":null,
    "street_name":"Jalan Tun Maju 77",
    "locality":"Taman Indah",
    "postcode":"80350",
    "city":"Johor Bahru",
    "district":"Johor Bahru",
    "state":"Johor",
    "latitude":4.596707,
    "longitude":112.538897
  },
  {
    "id":264,
    "unit_no":"11",
    "building_name":null,
    "street_name":"Jalan Maju 67",
    "locality":"Pusat Perdagangan Jaya",
    "postcode":"40000",
    "city":"Shah Alam",
    "district":"Shah Alam",
    "state":"Selangor",
    "latitude":1.718117,
    "longitude":114.464809
  },
  {
    "id":265,
    "unit_no":"57",
    "building_name":null,
    "street_name":"Lebuh Cempaka 10",
    "locality":"Seksyen Permai",
    "postcode":"93100",
    "city":"Kuching",
    "district":"Kuching",
    "state":"Sarawak",
    "latitude":3.321388,
    "longitude":115.744392
  },
  {
    "id":266,
    "unit_no":"12",
    "building_name":null,
    "street_name":"Lebuh Indah 79",
    "locality":"Bandar Permai",
    "postcode":"75100",
    "city":"Melaka",
    "district":"Melaka",
    "state":"Melaka",
    "latitude":2.855249,
    "longitude":118.145566
  },
  {
    "id":267,
    "unit_no":"145",
    "building_name":null,
    "street_name":"Jalan Tun Setia 56",
    "locality":"Pusat Perdagangan Bestari",
    "postcode":"20000",
    "city":"Kuala Terengganu",
    "district":"Kuala Terengganu",
    "state":"Terengganu",
    "latitude":1.815729,
    "longitude":108.511793
  },
  {
    "id":268,
    "unit_no":"82",
    "building_name":null,
    "street_name":"Persiaran Indah 17",
    "locality":"Bandar Jaya",
    "postcode":"70300",
    "city":"Seremban",
    "district":"Seremban",
    "state":"Negeri Sembilan",
    "latitude":2.534216,
    "longitude":113.540631
  },
  {
    "id":269,
    "unit_no":"2",
    "building_name":null,
    "street_name":"Jalan Perdana 26",
    "locality":"Pusat Perdagangan Utama",
    "postcode":"98000",
    "city":"Miri",
    "district":"Miri",
    "state":"Sarawak",
    "latitude":1.582231,
    "longitude":99.637702
  },
  {
    "id":270,
    "unit_no":"25",
    "building_name":null,
    "street_name":"Lebuh Setia 13",
    "locality":"Taman Permai",
    "postcode":"90000",
    "city":"Sandakan",
    "district":"Sandakan",
    "state":"Sabah",
    "latitude":6.351679,
    "longitude":116.186023
  },
  {
    "id":271,
    "unit_no":"75",
    "building_name":null,
    "street_name":"Lebuh Cempaka 76",
    "locality":"Taman Utama",
    "postcode":"60000",
    "city":"Kuala Lumpur",
    "district":"Kuala Lumpur",
    "state":"Wilayah Persekutuan Kuala Lumpur",
    "latitude":5.57423,
    "longitude":103.574069
  },
  {
    "id":272,
    "unit_no":"50",
    "building_name":null,
    "street_name":"Lebuh Sri 27",
    "locality":"Taman Sentosa",
    "postcode":"75000",
    "city":"Melaka",
    "district":"Melaka",
    "state":"Melaka",
    "latitude":4.487697,
    "longitude":116.8487
  },
  {
    "id":273,
    "unit_no":"50",
    "building_name":null,
    "street_name":"Lebuh Raya 94",
    "locality":"Bandar Permai",
    "postcode":"88000",
    "city":"Sandakan",
    "district":"Sandakan",
    "state":"Sabah",
    "latitude":2.231,
    "longitude":103.550458
  },
  {
    "id":274,
    "unit_no":"142",
    "building_name":null,
    "street_name":"Jalan Datuk Perdana 18",
    "locality":"Kampung Jaya",
    "postcode":"25200",
    "city":"Kuantan",
    "district":"Kuantan",
    "state":"Pahang",
    "latitude":1.097753,
    "longitude":108.812705
  },
  {
    "id":275,
    "unit_no":"90",
    "building_name":null,
    "street_name":"Jalan Datuk Perdana 56",
    "locality":"Bandar Indah",
    "postcode":"75100",
    "city":"Melaka",
    "district":"Melaka",
    "state":"Melaka",
    "latitude":5.177803,
    "longitude":111.029791
  },
  {
    "id":276,
    "unit_no":"131",
    "building_name":null,
    "street_name":"Jalan Tun Setia 43",
    "locality":"Bandar Utama",
    "postcode":"01000",
    "city":"Kangar",
    "district":"Kangar",
    "state":"Perlis",
    "latitude":4.7935,
    "longitude":112.933591
  },
  {
    "id":277,
    "unit_no":"150",
    "building_name":null,
    "street_name":"Lebuh Sri 15",
    "locality":"Pusat Perdagangan Utama",
    "postcode":"50480",
    "city":"Kuala Lumpur",
    "district":"Kuala Lumpur",
    "state":"Wilayah Persekutuan Kuala Lumpur",
    "latitude":3.260481,
    "longitude":105.557071
  },
  {
    "id":278,
    "unit_no":"147",
    "building_name":null,
    "street_name":"Jalan Indah 97",
    "locality":"Taman Jaya",
    "postcode":"34000",
    "city":"Taiping",
    "district":"Taiping",
    "state":"Perak",
    "latitude":1.458391,
    "longitude":114.264771
  },
  {
    "id":279,
    "unit_no":"59",
    "building_name":null,
    "street_name":"Jalan Datuk Indah 45",
    "locality":"Pusat Perdagangan Bestari",
    "postcode":"47600",
    "city":"Klang",
    "district":"Klang",
    "state":"Selangor",
    "latitude":4.704515,
    "longitude":109.653296
  },
  {
    "id":280,
    "unit_no":"9",
    "building_name":null,
    "street_name":"Jalan Melati 27",
    "locality":"Seksyen Bestari",
    "postcode":"20000",
    "city":"Kuala Terengganu",
    "district":"Kuala Terengganu",
    "state":"Terengganu",
    "latitude":6.207443,
    "longitude":105.445749
  },
  {
    "id":281,
    "unit_no":"53",
    "building_name":null,
    "street_name":"Jalan Tun Indah 32",
    "locality":"Pusat Perdagangan Jaya",
    "postcode":"88000",
    "city":"Sandakan",
    "district":"Sandakan",
    "state":"Sabah",
    "latitude":2.277776,
    "longitude":109.950831
  },
  {
    "id":282,
    "unit_no":"117",
    "building_name":null,
    "street_name":"Persiaran Indah 65",
    "locality":"Pusat Perdagangan Permai",
    "postcode":"41000",
    "city":"Shah Alam",
    "district":"Shah Alam",
    "state":"Selangor",
    "latitude":4.517555,
    "longitude":110.466738
  },
  {
    "id":283,
    "unit_no":"33",
    "building_name":null,
    "street_name":"Jalan Tun Cempaka 48",
    "locality":"Taman Sentosa",
    "postcode":"90000",
    "city":"Sandakan",
    "district":"Sandakan",
    "state":"Sabah",
    "latitude":1.433334,
    "longitude":105.388255
  },
  {
    "id":284,
    "unit_no":"45",
    "building_name":null,
    "street_name":"Lebuh Melati 29",
    "locality":"Bandar Permai",
    "postcode":"05000",
    "city":"Langkawi",
    "district":"Langkawi",
    "state":"Kedah",
    "latitude":2.247643,
    "longitude":100.723935
  },
  {
    "id":285,
    "unit_no":"99",
    "building_name":null,
    "street_name":"Jalan Indah 75",
    "locality":"Pusat Perdagangan Utama",
    "postcode":"01000",
    "city":"Kangar",
    "district":"Kangar",
    "state":"Perlis",
    "latitude":5.28051,
    "longitude":119.435816
  },
  {
    "id":286,
    "unit_no":"94",
    "building_name":null,
    "street_name":"Persiaran Perdana 70",
    "locality":"Kampung Indah",
    "postcode":"01000",
    "city":"Kangar",
    "district":"Kangar",
    "state":"Perlis",
    "latitude":1.863679,
    "longitude":115.231897
  },
  {
    "id":287,
    "unit_no":"21",
    "building_name":null,
    "street_name":"Lebuh Maju 98",
    "locality":"Taman Jaya",
    "postcode":"20000",
    "city":"Kuala Terengganu",
    "district":"Kuala Terengganu",
    "state":"Terengganu",
    "latitude":5.39616,
    "longitude":114.428496
  },
  {
    "id":288,
    "unit_no":"8",
    "building_name":null,
    "street_name":"Jalan Setia 97",
    "locality":"Seksyen Permai",
    "postcode":"50100",
    "city":"Kuala Lumpur",
    "district":"Kuala Lumpur",
    "state":"Wilayah Persekutuan Kuala Lumpur",
    "latitude":2.392463,
    "longitude":113.348612
  },
  {
    "id":289,
    "unit_no":"25",
    "building_name":null,
    "street_name":"Lebuh Melati 21",
    "locality":"Pusat Perdagangan Permai",
    "postcode":"30300",
    "city":"Ipoh",
    "district":"Ipoh",
    "state":"Perak",
    "latitude":2.43688,
    "longitude":115.814649
  },
  {
    "id":290,
    "unit_no":"69",
    "building_name":null,
    "street_name":"Jalan Tun Indah 54",
    "locality":"Taman Bestari",
    "postcode":"93000",
    "city":"Miri",
    "district":"Miri",
    "state":"Sarawak",
    "latitude":4.869317,
    "longitude":102.610675
  },
  {
    "id":291,
    "unit_no":"1",
    "building_name":null,
    "street_name":"Jalan Indah 67",
    "locality":"Pusat Perdagangan Jaya",
    "postcode":"50200",
    "city":"Kuala Lumpur",
    "district":"Kuala Lumpur",
    "state":"Wilayah Persekutuan Kuala Lumpur",
    "latitude":6.866514,
    "longitude":102.868129
  },
  {
    "id":292,
    "unit_no":"109",
    "building_name":null,
    "street_name":"Jalan Datuk Sri 99",
    "locality":"Pusat Perdagangan Permai",
    "postcode":"07000",
    "city":"Langkawi",
    "district":"Langkawi",
    "state":"Kedah",
    "latitude":1.370708,
    "longitude":109.906357
  },
  {
    "id":293,
    "unit_no":"130",
    "building_name":null,
    "street_name":"Jalan Datuk Maju 21",
    "locality":"Seksyen Indah",
    "postcode":"25000",
    "city":"Kuantan",
    "district":"Kuantan",
    "state":"Pahang",
    "latitude":1.014437,
    "longitude":108.149647
  },
  {
    "id":294,
    "unit_no":"37",
    "building_name":null,
    "street_name":"Lorong Melati 53",
    "locality":"Seksyen Jaya",
    "postcode":"10000",
    "city":"Bayan Lepas",
    "district":"Bayan Lepas",
    "state":"Pulau Pinang",
    "latitude":3.949986,
    "longitude":110.490939
  },
  {
    "id":295,
    "unit_no":"45",
    "building_name":null,
    "street_name":"Persiaran Maju 65",
    "locality":"Pusat Perdagangan Permai",
    "postcode":"20100",
    "city":"Kuala Terengganu",
    "district":"Kuala Terengganu",
    "state":"Terengganu",
    "latitude":4.130396,
    "longitude":114.046757
  },
  {
    "id":296,
    "unit_no":"89",
    "building_name":null,
    "street_name":"Jalan Perdana 25",
    "locality":"Kampung Permai",
    "postcode":"47300",
    "city":"Klang",
    "district":"Klang",
    "state":"Selangor",
    "latitude":4.756373,
    "longitude":113.52213
  },
  {
    "id":297,
    "unit_no":"38",
    "building_name":null,
    "street_name":"Lebuh Indah 2",
    "locality":"Kampung Utama",
    "postcode":"01000",
    "city":"Kangar",
    "district":"Kangar",
    "state":"Perlis",
    "latitude":4.402261,
    "longitude":105.343307
  },
  {
    "id":298,
    "unit_no":"3",
    "building_name":null,
    "street_name":"Persiaran Setia 27",
    "locality":"Kampung Sentosa",
    "postcode":"88000",
    "city":"Kota Kinabalu",
    "district":"Kota Kinabalu",
    "state":"Sabah",
    "latitude":3.251057,
    "longitude":112.85562
  },
  {
    "id":299,
    "unit_no":"100",
    "building_name":null,
    "street_name":"Jalan Tun Sri 90",
    "locality":"Pusat Perdagangan Utama",
    "postcode":"70000",
    "city":"Seremban",
    "district":"Seremban",
    "state":"Negeri Sembilan",
    "latitude":3.684774,
    "longitude":107.083676
  },
  {
    "id":300,
    "unit_no":"83",
    "building_name":null,
    "street_name":"Persiaran Sri 22",
    "locality":"Seksyen Bestari",
    "postcode":"11900",
    "city":"Bayan Lepas",
    "district":"Bayan Lepas",
    "state":"Pulau Pinang",
    "latitude":1.060327,
    "longitude":99.684716
  },
  {
    "id":301,
    "unit_no":"76",
    "building_name":null,
    "street_name":"Jalan Datuk Setia 62",
    "locality":"Bandar Jaya",
    "postcode":"05000",
    "city":"Alor Setar",
    "district":"Alor Setar",
    "state":"Kedah",
    "latitude":6.541339,
    "longitude":111.017443
  },
  {
    "id":302,
    "unit_no":"60",
    "building_name":null,
    "street_name":"Lebuh Setia 43",
    "locality":"Taman Indah",
    "postcode":"70300",
    "city":"Seremban",
    "district":"Seremban",
    "state":"Negeri Sembilan",
    "latitude":2.483762,
    "longitude":112.433448
  },
  {
    "id":303,
    "unit_no":"91",
    "building_name":null,
    "street_name":"Jalan Datuk Raya 71",
    "locality":"Bandar Jaya",
    "postcode":"70300",
    "city":"Seremban",
    "district":"Seremban",
    "state":"Negeri Sembilan",
    "latitude":5.676354,
    "longitude":108.722857
  },
  {
    "id":304,
    "unit_no":"93",
    "building_name":null,
    "street_name":"Jalan Sri 27",
    "locality":"Bandar Permai",
    "postcode":"90000",
    "city":"Sandakan",
    "district":"Sandakan",
    "state":"Sabah",
    "latitude":5.049165,
    "longitude":116.579172
  },
  {
    "id":305,
    "unit_no":"113",
    "building_name":null,
    "street_name":"Jalan Datuk Cempaka 31",
    "locality":"Pusat Perdagangan Utama",
    "postcode":"80000",
    "city":"Johor Bahru",
    "district":"Johor Bahru",
    "state":"Johor",
    "latitude":1.820105,
    "longitude":114.21261
  },
  {
    "id":306,
    "unit_no":"41",
    "building_name":null,
    "street_name":"Jalan Tun Sri 28",
    "locality":"Taman Utama",
    "postcode":"75000",
    "city":"Melaka",
    "district":"Melaka",
    "state":"Melaka",
    "latitude":3.741616,
    "longitude":115.442358
  },
  {
    "id":307,
    "unit_no":"148",
    "building_name":null,
    "street_name":"Persiaran Setia 66",
    "locality":"Taman Sentosa",
    "postcode":"20000",
    "city":"Kuala Terengganu",
    "district":"Kuala Terengganu",
    "state":"Terengganu",
    "latitude":1.904202,
    "longitude":111.870062
  },
  {
    "id":308,
    "unit_no":"21",
    "building_name":null,
    "street_name":"Jalan Raya 52",
    "locality":"Pusat Perdagangan Utama",
    "postcode":"30000",
    "city":"Ipoh",
    "district":"Ipoh",
    "state":"Perak",
    "latitude":2.153671,
    "longitude":107.123903
  },
  {
    "id":309,
    "unit_no":"134",
    "building_name":null,
    "street_name":"Lebuh Cempaka 42",
    "locality":"Pusat Perdagangan Bestari",
    "postcode":"30000",
    "city":"Taiping",
    "district":"Taiping",
    "state":"Perak",
    "latitude":2.611851,
    "longitude":103.45783
  },
  {
    "id":310,
    "unit_no":"116",
    "building_name":null,
    "street_name":"Jalan Cempaka 47",
    "locality":"Seksyen Indah",
    "postcode":"25200",
    "city":"Kuantan",
    "district":"Kuantan",
    "state":"Pahang",
    "latitude":1.195717,
    "longitude":114.584033
  },
  {
    "id":311,
    "unit_no":"61",
    "building_name":null,
    "street_name":"Jalan Raya 79",
    "locality":"Seksyen Utama",
    "postcode":"88000",
    "city":"Sandakan",
    "district":"Sandakan",
    "state":"Sabah",
    "latitude":4.246501,
    "longitude":114.005178
  },
  {
    "id":312,
    "unit_no":"27",
    "building_name":null,
    "street_name":"Lorong Melati 26",
    "locality":"Kampung Utama",
    "postcode":"93100",
    "city":"Kuching",
    "district":"Kuching",
    "state":"Sarawak",
    "latitude":1.838914,
    "longitude":105.780704
  },
  {
    "id":313,
    "unit_no":"58",
    "building_name":null,
    "street_name":"Jalan Melati 37",
    "locality":"Taman Indah",
    "postcode":"47600",
    "city":"Klang",
    "district":"Klang",
    "state":"Selangor",
    "latitude":3.337603,
    "longitude":104.790513
  },
  {
    "id":314,
    "unit_no":"54",
    "building_name":null,
    "street_name":"Lorong Indah 38",
    "locality":"Bandar Permai",
    "postcode":"70300",
    "city":"Seremban",
    "district":"Seremban",
    "state":"Negeri Sembilan",
    "latitude":4.068009,
    "longitude":116.312314
  },
  {
    "id":315,
    "unit_no":"33",
    "building_name":null,
    "street_name":"Lebuh Melati 48",
    "locality":"Kampung Bestari",
    "postcode":"40460",
    "city":"Klang",
    "district":"Klang",
    "state":"Selangor",
    "latitude":2.91792,
    "longitude":105.160074
  },
  {
    "id":316,
    "unit_no":"106",
    "building_name":null,
    "street_name":"Jalan Datuk Perdana 11",
    "locality":"Taman Bestari",
    "postcode":"15400",
    "city":"Kota Bharu",
    "district":"Kota Bharu",
    "state":"Kelantan",
    "latitude":1.630631,
    "longitude":105.356921
  },
  {
    "id":317,
    "unit_no":"111",
    "building_name":null,
    "street_name":"Jalan Tun Sri 99",
    "locality":"Taman Jaya",
    "postcode":"05300",
    "city":"Alor Setar",
    "district":"Alor Setar",
    "state":"Kedah",
    "latitude":3.207934,
    "longitude":117.58293
  },
  {
    "id":318,
    "unit_no":"139",
    "building_name":null,
    "street_name":"Lorong Cempaka 74",
    "locality":"Kampung Jaya",
    "postcode":"75100",
    "city":"Melaka",
    "district":"Melaka",
    "state":"Melaka",
    "latitude":1.578505,
    "longitude":117.058039
  },
  {
    "id":319,
    "unit_no":"70",
    "building_name":null,
    "street_name":"Jalan Raya 29",
    "locality":"Seksyen Permai",
    "postcode":"05300",
    "city":"Alor Setar",
    "district":"Alor Setar",
    "state":"Kedah",
    "latitude":2.327189,
    "longitude":107.901575
  },
  {
    "id":320,
    "unit_no":"2",
    "building_name":null,
    "street_name":"Lorong Setia 43",
    "locality":"Seksyen Jaya",
    "postcode":"01000",
    "city":"Kangar",
    "district":"Kangar",
    "state":"Perlis",
    "latitude":4.935246,
    "longitude":105.37632
  },
  {
    "id":321,
    "unit_no":"10",
    "building_name":null,
    "street_name":"Persiaran Indah 41",
    "locality":"Pusat Perdagangan Utama",
    "postcode":"01000",
    "city":"Kangar",
    "district":"Kangar",
    "state":"Perlis",
    "latitude":6.782258,
    "longitude":100.680358
  },
  {
    "id":322,
    "unit_no":"46",
    "building_name":null,
    "street_name":"Lorong Raya 51",
    "locality":"Taman Permai",
    "postcode":"55100",
    "city":"Kuala Lumpur",
    "district":"Kuala Lumpur",
    "state":"Wilayah Persekutuan Kuala Lumpur",
    "latitude":6.235143,
    "longitude":109.927872
  },
  {
    "id":323,
    "unit_no":"47",
    "building_name":null,
    "street_name":"Lorong Perdana 36",
    "locality":"Seksyen Utama",
    "postcode":"75100",
    "city":"Melaka",
    "district":"Melaka",
    "state":"Melaka",
    "latitude":2.881248,
    "longitude":99.251954
  },
  {
    "id":324,
    "unit_no":"124",
    "building_name":null,
    "street_name":"Jalan Cempaka 40",
    "locality":"Pusat Perdagangan Indah",
    "postcode":"20100",
    "city":"Kuala Terengganu",
    "district":"Kuala Terengganu",
    "state":"Terengganu",
    "latitude":2.915517,
    "longitude":104.345315
  },
  {
    "id":325,
    "unit_no":"47",
    "building_name":null,
    "street_name":"Lebuh Indah 84",
    "locality":"Taman Jaya",
    "postcode":"05300",
    "city":"Langkawi",
    "district":"Langkawi",
    "state":"Kedah",
    "latitude":5.457113,
    "longitude":114.076526
  },
  {
    "id":326,
    "unit_no":"100",
    "building_name":null,
    "street_name":"Jalan Indah 81",
    "locality":"Pusat Perdagangan Jaya",
    "postcode":"05300",
    "city":"Langkawi",
    "district":"Langkawi",
    "state":"Kedah",
    "latitude":3.555756,
    "longitude":101.039731
  },
  {
    "id":327,
    "unit_no":"105",
    "building_name":null,
    "street_name":"Lebuh Cempaka 20",
    "locality":"Pusat Perdagangan Sentosa",
    "postcode":"75100",
    "city":"Melaka",
    "district":"Melaka",
    "state":"Melaka",
    "latitude":5.608997,
    "longitude":106.887562
  },
  {
    "id":328,
    "unit_no":"8",
    "building_name":null,
    "street_name":"Lebuh Cempaka 47",
    "locality":"Seksyen Bestari",
    "postcode":"10000",
    "city":"George Town",
    "district":"George Town",
    "state":"Pulau Pinang",
    "latitude":4.761772,
    "longitude":108.381098
  },
  {
    "id":329,
    "unit_no":"14",
    "building_name":null,
    "street_name":"Lorong Setia 64",
    "locality":"Seksyen Permai",
    "postcode":"40460",
    "city":"Klang",
    "district":"Klang",
    "state":"Selangor",
    "latitude":5.072928,
    "longitude":108.238605
  },
  {
    "id":330,
    "unit_no":"137",
    "building_name":null,
    "street_name":"Jalan Tun Perdana 59",
    "locality":"Pusat Perdagangan Sentosa",
    "postcode":"01000",
    "city":"Kangar",
    "district":"Kangar",
    "state":"Perlis",
    "latitude":4.336205,
    "longitude":108.446328
  },
  {
    "id":331,
    "unit_no":"75",
    "building_name":null,
    "street_name":"Persiaran Cempaka 58",
    "locality":"Bandar Indah",
    "postcode":"11900",
    "city":"George Town",
    "district":"George Town",
    "state":"Pulau Pinang",
    "latitude":2.634251,
    "longitude":108.185208
  },
  {
    "id":332,
    "unit_no":"75",
    "building_name":null,
    "street_name":"Jalan Tun Raya 22",
    "locality":"Seksyen Indah",
    "postcode":"47600",
    "city":"Shah Alam",
    "district":"Shah Alam",
    "state":"Selangor",
    "latitude":2.842584,
    "longitude":113.229938
  },
  {
    "id":333,
    "unit_no":"67",
    "building_name":null,
    "street_name":"Lorong Maju 71",
    "locality":"Taman Indah",
    "postcode":"25000",
    "city":"Kuantan",
    "district":"Kuantan",
    "state":"Pahang",
    "latitude":1.428636,
    "longitude":101.360524
  },
  {
    "id":334,
    "unit_no":"82",
    "building_name":null,
    "street_name":"Jalan Datuk Setia 72",
    "locality":"Pusat Perdagangan Sentosa",
    "postcode":"07000",
    "city":"Langkawi",
    "district":"Langkawi",
    "state":"Kedah",
    "latitude":2.890706,
    "longitude":108.379083
  },
  {
    "id":335,
    "unit_no":"98",
    "building_name":null,
    "street_name":"Jalan Datuk Setia 9",
    "locality":"Seksyen Jaya",
    "postcode":"11900",
    "city":"Bayan Lepas",
    "district":"Bayan Lepas",
    "state":"Pulau Pinang",
    "latitude":6.790017,
    "longitude":110.335183
  },
  {
    "id":336,
    "unit_no":"8",
    "building_name":null,
    "street_name":"Persiaran Sri 83",
    "locality":"Kampung Utama",
    "postcode":"11900",
    "city":"Bayan Lepas",
    "district":"Bayan Lepas",
    "state":"Pulau Pinang",
    "latitude":1.844085,
    "longitude":102.773769
  },
  {
    "id":337,
    "unit_no":"65",
    "building_name":null,
    "street_name":"Jalan Datuk Raya 9",
    "locality":"Bandar Bestari",
    "postcode":"98000",
    "city":"Miri",
    "district":"Miri",
    "state":"Sarawak",
    "latitude":1.958684,
    "longitude":116.696377
  },
  {
    "id":338,
    "unit_no":"12",
    "building_name":null,
    "street_name":"Persiaran Cempaka 54",
    "locality":"Pusat Perdagangan Utama",
    "postcode":"01000",
    "city":"Kangar",
    "district":"Kangar",
    "state":"Perlis",
    "latitude":5.672697,
    "longitude":109.097265
  },
  {
    "id":339,
    "unit_no":"123",
    "building_name":null,
    "street_name":"Jalan Datuk Perdana 75",
    "locality":"Seksyen Indah",
    "postcode":"50000",
    "city":"Kuala Lumpur",
    "district":"Kuala Lumpur",
    "state":"Wilayah Persekutuan Kuala Lumpur",
    "latitude":3.005965,
    "longitude":101.918546
  },
  {
    "id":340,
    "unit_no":"70",
    "building_name":null,
    "street_name":"Lebuh Melati 57",
    "locality":"Bandar Permai",
    "postcode":"93100",
    "city":"Miri",
    "district":"Miri",
    "state":"Sarawak",
    "latitude":5.608985,
    "longitude":103.516145
  },